[
    {"name":"Novosibirsk","coordinates":[82.9234509,55.0282171]},
{"name":"London","coordinates":[-0.1276474,51.5073219]},
{"name":"Wellington","coordinates":[174.77720920000002,-41.2887467]},
{"name":"Leeds","coordinates":[-1.5437941,53.7974185]},
{"name":"Athens","coordinates":[23.7279843,37.9841493]},
{"name":"Ljubljana","coordinates":[14.5068921,46.049865]},
{"name":"Glasgow","coordinates":[-4.2435817,55.856656]},
{"name":"Norwich","coordinates":[1.29227,52.628606]},
{"name":"Oxford","coordinates":[-1.2578499,51.7520131]},
{"name":"Copenhagen","coordinates":[12.5700724,55.6867243]},
{"name":"Quezon City","coordinates":[121.04861550000001,14.6509905]},
{"name":"Mumbai","coordinates":[72.8353355,18.9387711]},
{"name":"New Delhi","coordinates":[77.20226620000001,28.6141793]},
{"name":"Pune","coordinates":[73.8543185,18.5203062]},
{"name":"Lahore","coordinates":[74.3294942,31.5164908]},
{"name":"Vienna","coordinates":[16.3725042,48.2083537]},
{"name":"Portsmouth","coordinates":[-1.075614,50.8036831]},
{"name":"Paris","coordinates":[2.3514992,48.8566101]},
{"name":"Birmingham","coordinates":[-1.894053,52.4775396]},
{"name":"Peterborough","coordinates":[-0.2416701,52.5738875]},
{"name":"Plymouth","coordinates":[-4.1425658,50.3712659]},
{"name":"Toronto","coordinates":[-79.387207,43.653963]},
{"name":"Ottawa","coordinates":[-75.690308,45.421106]},
{"name":"Milton Keynes","coordinates":[-0.7589607,52.0429797]},
{"name":"Lyon","coordinates":[4.8320114,45.7578137]},
{"name":"Hamburg","coordinates":[10.000654,53.550341]},
{"name":"Cologne","coordinates":[6.959974,50.938361]},
{"name":"Sunderland","coordinates":[-1.375053,54.9063791]},
{"name":"Christiania","coordinates":[10.7391112,59.9132694]},
{"name":"Northampton","coordinates":[-0.902493,52.2385239]},
{"name":"Graz","coordinates":[15.4385716,47.0702563]},
{"name":"Wakefield","coordinates":[-1.5000466,53.6825669]},
{"name":"Baghdad","coordinates":[44.3787992,33.3024309]},
{"name":"Aberdeen","coordinates":[-2.0928095,57.1482429]},
{"name":"Swansea","coordinates":[-3.9467751,51.6211442]},
{"name":"Herne","coordinates":[7.219985,51.5380394]},
{"name":"Honolulu","coordinates":[-157.85567640000002,21.304547]},
{"name":"Colchester","coordinates":[0.9046293,51.8931303]},
{"name":"Canberra","coordinates":[149.1012676,-35.2975906]},
{"name":"Kabul","coordinates":[69.1776476,34.5260131]},
{"name":"Derby","coordinates":[-1.4761491,52.9212617]},
{"name":"Freiburg im Breisgau","coordinates":[7.8238644,48.0021641]},
{"name":"Nottingham","coordinates":[-1.1492773,52.9534161]},
{"name":"Linz","coordinates":[14.286198,48.3059078]},
{"name":"Beijing","coordinates":[116.391248,39.9059631]},
{"name":"Lübeck","coordinates":[10.684738,53.866444]},
{"name":"Port Elizabeth","coordinates":[25.6207519,-33.9617051]},
{"name":"Legazpi","coordinates":[123.73431040000001,13.1388596]},
{"name":"Arad","coordinates":[21.3196342,46.1753793]},
{"name":"Casablanca","coordinates":[-7.6187768,33.5950627]},
{"name":"Newcastle","coordinates":[151.7812534,-32.9272881]},
{"name":"Eskisehir","coordinates":[30.5255947,39.7666813]},
{"name":"Aydin","coordinates":[27.8328374,37.8413007]},
{"name":"Stockholm","coordinates":[18.0710935,59.3251172]},
{"name":"Gothenburg","coordinates":[11.9670171,57.7072326]},
{"name":"Tehran","coordinates":[51.4013785,35.7006177]},
{"name":"Isfahan","coordinates":[51.6650002,32.6707877]},
{"name":"Mashhad","coordinates":[59.6059232,36.2974945]},
{"name":"Tabriz","coordinates":[46.2961952,38.0739964]},
{"name":"Qazvin","coordinates":[50.006663,36.2804074]},
{"name":"Qom","coordinates":[50.8799831,34.6423134]},
{"name":"Shiraz","coordinates":[52.5378041,29.6060218]},
{"name":"Kyiv","coordinates":[30.5240501,50.4501071]},
{"name":"Chernihiv","coordinates":[31.294332,51.494099]},
{"name":"Odessa","coordinates":[30.732564,46.4846583]},
{"name":"Lviv","coordinates":[24.0315921,49.841952]},
{"name":"Homel","coordinates":[31.0131698,52.4238936]},
{"name":"Minsk","coordinates":[27.5618791,53.902334]},
{"name":"Havana","coordinates":[-82.3658671,23.138028]},
{"name":"Urmia","coordinates":[45.0682863,37.5493473]},
{"name":"Gdansk","coordinates":[18.6452324,54.347629]},
{"name":"Antakya","coordinates":[36.1653617,36.2176872]},
{"name":"Artvin","coordinates":[41.8287448,41.1830811]},
{"name":"Adiyaman","coordinates":[38.2764355,37.7640008]},
{"name":"Diyarbakir","coordinates":[40.2226158,37.9166031]},
{"name":"Şanlıurfa","coordinates":[38.7916052,37.1601999]},
{"name":"Gaziantep","coordinates":[37.3793085,37.0611756]},
{"name":"Stoke-on-Trent","coordinates":[-2.1812607,53.0162014]},
{"name":"Almaty","coordinates":[76.9457275,43.2363924]},
{"name":"Santander","coordinates":[-3.8099719,43.4620412]},
{"name":"Magway","coordinates":[94.92135180000001,20.1491458]},
{"name":"Pyin Oo Lwin","coordinates":[96.466667,22.0333331]},
{"name":"Yangon","coordinates":[96.1609916,16.7967129]},
{"name":"Pathein","coordinates":[94.733333,16.783333]},
{"name":"Sagaing","coordinates":[95.9839956,21.8774215]},
{"name":"Thanlyin","coordinates":[96.2509473,16.7648126]},
{"name":"Bago","coordinates":[96.479722,17.336667]},
{"name":"Sittwe","coordinates":[92.9,20.15]},
{"name":"Thongwa","coordinates":[96.52371880000001,16.7608437]},
{"name":"Mandalay","coordinates":[96.082375,21.9812746]},
{"name":"Monywa","coordinates":[95.1324747,22.1182175]},
{"name":"Meiktila","coordinates":[95.8619463,20.8814233]},
{"name":"Myeik","coordinates":[98.5955711,12.4319552]},
{"name":"Zahedan","coordinates":[60.8503017,29.4928874]},
{"name":"Saskatoon","coordinates":[-106.660767,52.131802]},
{"name":"Rennes","coordinates":[-1.6800198,48.1113387]},
{"name":"Bradford","coordinates":[-1.7519186,53.7944229]},
{"name":"Riga","coordinates":[24.1051846,56.9493977]},
{"name":"Regina","coordinates":[-104.61731,50.44876]},
{"name":"Oujda","coordinates":[-1.929306,34.677874]},
{"name":"El Jadida","coordinates":[-8.49884,33.2433309]},
{"name":"Marseille","coordinates":[5.3699525,43.2961743]},
{"name":"San Francisco","coordinates":[-122.4192363,37.7792808]},
{"name":"Severodvinsk","coordinates":[39.823769,64.563385]},
{"name":"Petrozavodsk","coordinates":[34.390007,61.790039]},
{"name":"Vologda","coordinates":[39.893276,59.218876]},
{"name":"Tver","coordinates":[35.9208284,56.858675]},
{"name":"Veliky Novgorod","coordinates":[31.2757862,58.5209862]},
{"name":"Pskov","coordinates":[28.334368,57.817398]},
{"name":"Kaliningrad","coordinates":[20.5105166,54.7066422]},
{"name":"Kinshasa","coordinates":[15.3125974,-4.3217055]},
{"name":"Smolensk","coordinates":[32.0549595,54.7940965]},
{"name":"Bryansk","coordinates":[34.3668288,53.2423778]},
{"name":"Hurghada","coordinates":[33.8267842,27.2405016]},
{"name":"Kursk","coordinates":[36.179604,51.739433]},
{"name":"Oryol","coordinates":[36.0692477,52.9685433]},
{"name":"Belgorod","coordinates":[36.586933,50.595299]},
{"name":"Poltava","coordinates":[34.5507948,49.5897423]},
{"name":"Zaporizhzhia","coordinates":[35.1182867,47.8507859]},
{"name":"Angeles","coordinates":[120.5879182,15.1399659]},
{"name":"Brest","coordinates":[23.6851851,52.093751]},
{"name":"Olongapo","coordinates":[120.2835205,14.8314675]},
{"name":"Kaunas","coordinates":[23.9044817,54.8982139]},
{"name":"Vilnius","coordinates":[25.2829111,54.6870458]},
{"name":"Basel","coordinates":[7.5878261,47.5581077]},
{"name":"Westminster","coordinates":[-0.137149,51.4973206]},
{"name":"Frankfort","coordinates":[8.6820917,50.1106444]},
{"name":"Iquitos","coordinates":[-73.2444145,-3.749365]},
{"name":"Saint Petersburg","coordinates":[30.316229,59.938732]},
{"name":"Vladivostok","coordinates":[131.8855768,43.1150678]},
{"name":"Yekaterinburg","coordinates":[60.60825,56.839104]},
{"name":"Samara","coordinates":[50.113987,53.198627]},
{"name":"Omsk","coordinates":[73.371529,54.991375]},
{"name":"Kazan","coordinates":[49.1242266,55.7823547]},
{"name":"Chelyabinsk","coordinates":[61.4025547,55.1598408]},
{"name":"Ufa","coordinates":[55.947727,54.726288]},
{"name":"Volgograd","coordinates":[44.516804,48.710678]},
{"name":"Perm","coordinates":[56.246723,58.014965]},
{"name":"Saratov","coordinates":[46.034683,51.530018]},
{"name":"Voronezh","coordinates":[39.2005858,51.6605982]},
{"name":"Tolyatti","coordinates":[49.407574,53.51495]},
{"name":"Krasnodar","coordinates":[38.9764814,45.0352566]},
{"name":"Yaroslavl","coordinates":[39.8933705,57.6263877]},
{"name":"Barnaul","coordinates":[83.7784496,53.347402]},
{"name":"Irkutsk","coordinates":[104.280586,52.289597]},
{"name":"Novokuznetsk","coordinates":[87.136101,53.757607]},
{"name":"Orenburg","coordinates":[55.097118,51.767452]},
{"name":"Ryazan","coordinates":[39.7425039,54.6295687]},
{"name":"Penza","coordinates":[45,53.200001]},
{"name":"Tyumen","coordinates":[65.542274,57.153534]},
{"name":"Nizhny Novgorod","coordinates":[44.003506,56.328571]},
{"name":"Tashkent","coordinates":[69.2787079,41.3123363]},
{"name":"Semey","coordinates":[80.249176,50.405029]},
{"name":"Bishkek","coordinates":[74.6069949,42.8767446]},
{"name":"Dushanbe","coordinates":[68.7863573,38.5762709]},
{"name":"Ulaanbaatar","coordinates":[106.9177016,47.9184676]},
{"name":"Astana","coordinates":[71.43055,51.128258]},
{"name":"Hamedan","coordinates":[48.514849,34.7983223]},
{"name":"Constantine","coordinates":[6.60826,36.364519]},
{"name":"Bamako","coordinates":[-8.000337,12.649319]},
{"name":"Suez","coordinates":[32.537086,29.974498]},
{"name":"Tunis","coordinates":[10.184794,36.800108]},
{"name":"Lubumbashi","coordinates":[27.4826264,-11.6642316]},
{"name":"Port Said","coordinates":[32.305505,31.263235]},
{"name":"Bangui","coordinates":[18.5509126,4.3907153]},
{"name":"Ouagadougou","coordinates":[-1.527085,12.368148]},
{"name":"Bouaké","coordinates":[-5.0298408,7.6906058]},
{"name":"Alexandria","coordinates":[29.894378,31.199004]},
{"name":"N'Djamena","coordinates":[15.0502758,12.1191543]},
{"name":"Dar es Salaam","coordinates":[39.2803583,-6.8160837]},
{"name":"Ogbomosho","coordinates":[4.25,8.133]},
{"name":"Addis Ababa","coordinates":[38.7612525,9.0107934]},
{"name":"Agadir","coordinates":[-9.5830626,30.4211144]},
{"name":"Djibouti","coordinates":[43.14724,11.593665]},
{"name":"Oran","coordinates":[-0.6492976,35.7032751]},
{"name":"Khartoum","coordinates":[32.53565,15.593325]},
{"name":"Giza","coordinates":[31.2134513,30.0170059]},
{"name":"Pamplona","coordinates":[-1.6442556,42.8184538]},
{"name":"Ula","coordinates":[25.4716809,65.0118734]},
{"name":"Jerusalem","coordinates":[35.2250786,31.778345]},
{"name":"Safi","coordinates":[-9.239533,32.299424]},
{"name":"Shreveport","coordinates":[-93.76519440000001,32.5221828]},
{"name":"Tallinn","coordinates":[24.7453688,59.4372155]},
{"name":"Boma","coordinates":[13.05,-5.85]},
{"name":"Edmonton","coordinates":[-113.507996,53.535411]},
{"name":"Pokhara","coordinates":[83.991402,28.209538]},
{"name":"Bukhara","coordinates":[64.4231326,39.7675529]},
{"name":"Madison","coordinates":[-89.3837613,43.074761]},
{"name":"Mariupol","coordinates":[37.5499333,47.0957773]},
{"name":"Taganrog","coordinates":[38.903365,47.2136896]},
{"name":"Lublin","coordinates":[22.5701022,51.250559]},
{"name":"Ardabil","coordinates":[48.297455,38.2493585]},
{"name":"Brunswick","coordinates":[10.525291,52.2640651]},
{"name":"São Paulo","coordinates":[-46.6333824,-23.5506507]},
{"name":"Quebec","coordinates":[-71.2352226,46.8259601]},
{"name":"Tarlac City","coordinates":[120.589556,15.485997]},
{"name":"Tamale","coordinates":[-0.8430289,9.4043366]},
{"name":"Burgas","coordinates":[27.4721276,42.4936616]},
{"name":"Varna","coordinates":[27.9150855,43.2069025]},
{"name":"Lhasa","coordinates":[91.1330128,29.6554138]},
{"name":"Dubai","coordinates":[55.2961962,25.2683521]},
{"name":"Banha","coordinates":[31.184063,30.4624974]},
{"name":"Nador","coordinates":[-2.9281198,35.1739922]},
{"name":"Mansoura","coordinates":[31.38649,31.037566]},
{"name":"El Mahalla El Kubra","coordinates":[31.1683002,30.9723517]},
{"name":"Kafr Al-Sheikh","coordinates":[30.9401454,31.111221]},
{"name":"TAKEN OVER BY HOWARD THE ALIEN","coordinates":[125.753388,39.0194741]},
{"name":"Al Khobar","coordinates":[50.1960237,26.3039999]},
{"name":"Aleppo","coordinates":[37.1637253,36.19924]},
{"name":"Nampo","coordinates":[125.4115285,38.7367448]},
{"name":"Cluj-Napoca","coordinates":[23.5900604,46.7693367]},
{"name":"Saveh","coordinates":[50.3584834,35.0206133]},
{"name":"Dezful","coordinates":[48.4032531,32.3780494]},
{"name":"Kermanshah","coordinates":[47.0735891,34.3239414]},
{"name":"Maragheh","coordinates":[46.2397524,37.3916705]},
{"name":"Mahabad","coordinates":[45.7218136,36.7651739]},
{"name":"Babol","coordinates":[52.6846571,36.5452581]},
{"name":"Sabzevar","coordinates":[57.6808799,36.2134053]},
{"name":"Shahr-e Kord","coordinates":[50.8497369,32.3257366]},
{"name":"Sari","coordinates":[53.058569,36.5658725]},
{"name":"Birjand","coordinates":[59.2169951,32.8630967]},
{"name":"Sirjan","coordinates":[55.6712851,29.4447686]},
{"name":"Kerman","coordinates":[57.0646827,30.2924363]},
{"name":"Abadan","coordinates":[48.2591475,30.3636097]},
{"name":"Bojnurd","coordinates":[57.3319881,37.4759752]},
{"name":"Bushehr","coordinates":[50.8403297,28.9685469]},
{"name":"Khoy","coordinates":[44.95354,38.5504343]},
{"name":"Zanjan","coordinates":[48.4836607,36.6673217]},
{"name":"Marand","coordinates":[45.7741,38.4306358]},
{"name":"Wonsan","coordinates":[127.453564,39.1532956]},
{"name":"Geneva","coordinates":[6.1466014,46.2017559]},
{"name":"Sochi","coordinates":[39.723109,43.5854823]},
{"name":"Valencia","coordinates":[-0.3759513,39.4699014]},
{"name":"Tula","coordinates":[37.61754,54.1930321]},
{"name":"Nizhny Tagil","coordinates":[59.9508466,57.905149]},
{"name":"Brasília","coordinates":[-47.8823172,-15.7934036]},
{"name":"Rio de Janeiro","coordinates":[-43.2093727,-22.9110137]},
{"name":"Mogadishu","coordinates":[45.338564,2.042778]},
{"name":"Salzburg","coordinates":[13.0464806,47.7981346]},
{"name":"Stavropol","coordinates":[41.9690934,45.0433245]},
{"name":"Nashville","coordinates":[-86.7743531,36.1622296]},
{"name":"Manama","coordinates":[50.5822436,26.2235041]},
{"name":"Jubail","coordinates":[49.6532161,27.0006968]},
{"name":"Donetsk","coordinates":[37.8013407,48.0158753]},
{"name":"Erigavo","coordinates":[47.37,10.61806]},
{"name":"Rotterdam","coordinates":[4.4631727,51.9228958]},
{"name":"Arnhem","coordinates":[5.9115982,51.9846929]},
{"name":"Meru","coordinates":[37.6500063,0.0500034]},
{"name":"Vancouver","coordinates":[-122.67445570000001,45.6306954]},
{"name":"Spokane","coordinates":[-117.4212265,47.6579425]},
{"name":"La Serena","coordinates":[-71.2520136,-29.9026615]},
{"name":"Talca","coordinates":[-71.6661153,-35.4266305]},
{"name":"El Paso","coordinates":[-106.487287,31.7600372]},
{"name":"Colombo","coordinates":[79.8538463,6.9349969]},
{"name":"Vancouver","coordinates":[-123.1139529,49.2608724]},
{"name":"Winnipeg","coordinates":[-97.168579,49.884017]},
{"name":"Kingston","coordinates":[-76.7928128,17.9712148]},
{"name":"Timișoara","coordinates":[21.2257474,45.7538355]},
{"name":"Meguro","coordinates":[139.688014,35.62125]},
{"name":"Thessaloniki","coordinates":[22.9352716,40.6403167]},
{"name":"Osaka","coordinates":[135.5018186,34.7043176]},
{"name":"Sapporo","coordinates":[141.337215,43.044768]},
{"name":"Rawalpindi","coordinates":[73.0535122,33.5914237]},
{"name":"Jalalabad","coordinates":[70.460128,34.430195]},
{"name":"Cuernavaca","coordinates":[-99.2342282,18.9218274]},
{"name":"Novi Sad","coordinates":[19.8451756,45.2551338]},
{"name":"Boise","coordinates":[-116.200835,43.61656]},
{"name":"Białystok","coordinates":[23.1591679,53.132398]},
{"name":"Mykolaiv","coordinates":[32.0042471,46.9713483]},
{"name":"Belgrade","coordinates":[20.4568974,44.8178131]},
{"name":"Pingzhen","coordinates":[121.21835940000001,24.9457522]},
{"name":"Banqiao","coordinates":[121.4590989,25.0096703]},
{"name":"East District","coordinates":[120.224198,22.980072]},
{"name":"Changhua","coordinates":[120.5423,24.0807667]},
{"name":"Pingtung","coordinates":[120.4884652,22.6697227]},
{"name":"Yangmei","coordinates":[121.1458735,24.9075751]},
{"name":"Zhonghe","coordinates":[121.49898,24.999397]},
{"name":"Taoyuan","coordinates":[121.30100030000001,24.9929995]},
{"name":"Xindian","coordinates":[121.5415784,24.9673093]},
{"name":"Kaohsiung","coordinates":[120.3120375,22.6203348]},
{"name":"Sanmin","coordinates":[120.2996219,22.6476949]},
{"name":"New Taipei","coordinates":[121.4656619,25.011997]},
{"name":"Beitun","coordinates":[120.6862883,24.1822644]},
{"name":"Zhongzheng","coordinates":[121.518267,25.0323611]},
{"name":"Zhongshan","coordinates":[121.533468,25.0643611]},
{"name":"Xiaogang","coordinates":[120.33797890000001,22.5653886]},
{"name":"Tamsui","coordinates":[121.4531477,25.1813044]},
{"name":"Nantun","coordinates":[120.644374,24.1346307]},
{"name":"Taiping","coordinates":[120.7185227,24.1264719]},
{"name":"Yongkang","coordinates":[120.2521025,23.0290427]},
{"name":"Da'an","coordinates":[121.534395,25.0265152]},
{"name":"Annan","coordinates":[120.1846813,23.0473013]},
{"name":"Xinzhuang","coordinates":[121.45024780000001,25.0357722]},
{"name":"Lingya","coordinates":[120.312347,22.62177]},
{"name":"Fengyuan","coordinates":[120.71846,24.24219]},
{"name":"Bade","coordinates":[121.28465550000001,24.9286511]},
{"name":"Sanchong","coordinates":[121.488102,25.061486]},
{"name":"Taoyuan","coordinates":[121.30168,24.993923]},
{"name":"Shulin","coordinates":[121.4205326,24.9907063]},
{"name":"Luzhu","coordinates":[121.293975,25.046735]},
{"name":"Beitou","coordinates":[121.501379,25.132419]},
{"name":"Tucheng","coordinates":[121.443348,24.972201]},
{"name":"Qianzhen","coordinates":[120.318583,22.586425]},
{"name":"Taichung","coordinates":[120.6478282,24.163162]},
{"name":"Fengshan","coordinates":[120.3627723,22.6270943]},
{"name":"Wanhua","coordinates":[121.49933220000001,25.0319327]},
{"name":"Xitun","coordinates":[120.633655,24.1653026]},
{"name":"Zuoying","coordinates":[120.2949581,22.690124]},
{"name":"Songshan","coordinates":[121.57727190000001,25.0498852]},
{"name":"Dali","coordinates":[120.67786,24.09939]},
{"name":"Wenshan","coordinates":[121.570458,24.989786]},
{"name":"Shilin","coordinates":[121.5242068,25.0918396]},
{"name":"Zhubei","coordinates":[121.00407790000001,24.839682]},
{"name":"Guishan","coordinates":[121.337767,24.992517]},
{"name":"Chiayi","coordinates":[120.4535412,23.4811089]},
{"name":"Hsinchu","coordinates":[120.9686833,24.8066333]},
{"name":"Neihu","coordinates":[121.58899830000001,25.069664]},
{"name":"Luzhou","coordinates":[121.4737,25.084923]},
{"name":"Gujranwala","coordinates":[74.1933745,32.1525312]},
{"name":"Florence","coordinates":[11.2555757,43.7698712]},
{"name":"New York","coordinates":[-73.9866136,40.7306458]},
{"name":"Patras","coordinates":[21.7350847,38.246242]},
{"name":"Mexico City","coordinates":[-99.1333416,19.4326009]},
{"name":"Milan","coordinates":[9.1904984,45.4667971]},
{"name":"Taza","coordinates":[-4.010104,34.230155]},
{"name":"Turin","coordinates":[7.6824892,45.0677551]},
{"name":"Venice","coordinates":[12.3345898,45.4371908]},
{"name":"Jhelum","coordinates":[73.719388,32.9247256]},
{"name":"Triest","coordinates":[13.7706559,45.6500335]},
{"name":"Genoa","coordinates":[8.9338624,44.40726]},
{"name":"Kathmandu","coordinates":[85.320244,27.708796]},
{"name":"Gonder","coordinates":[37.466766,12.610368]},
{"name":"Rome","coordinates":[12.4853384,41.894802]},
{"name":"Cagliari","coordinates":[9.1128513,39.2169525]},
{"name":"Chau Doc","coordinates":[105.1188675,10.7101815]},
{"name":"Hanoi","coordinates":[105.85247,21.0292095]},
{"name":"Lipetsk","coordinates":[39.5936899,52.6041877]},
{"name":"Quetta","coordinates":[67.0184433,30.1891852]},
{"name":"Buenos Aires","coordinates":[-58.437076,-34.6075616]},
{"name":"Al Ain","coordinates":[55.7474052,24.2258413]},
{"name":"Puerto Montt","coordinates":[-72.939621,-41.4718121]},
{"name":"Sherbrooke","coordinates":[-71.889038,45.403271]},
{"name":"Budapest","coordinates":[19.0404707,47.4983815]},
{"name":"Novorossiysk","coordinates":[37.7690711,44.7239578]},
{"name":"Sukkur","coordinates":[68.8588754,27.6961883]},
{"name":"Florianópolis","coordinates":[-48.5496098,-27.5973002]},
{"name":"Nalchik","coordinates":[43.5966578,43.4769604]},
{"name":"Mosul","coordinates":[43.1291386,36.3415843]},
{"name":"Bucharest","coordinates":[26.1027202,44.4361414]},
{"name":"Juba","coordinates":[31.5951655,4.8472017]},
{"name":"Kandahar","coordinates":[65.71447710000001,31.6257718]},
{"name":"Atyrau","coordinates":[51.9244533,47.1053426]},
{"name":"Duhok","coordinates":[42.9924528,36.8542598]},
{"name":"Orlando","coordinates":[-81.3790388,28.5421097]},
{"name":"Nis","coordinates":[21.8957301,43.321504]},
{"name":"Engels","coordinates":[46.1233093,51.5013775]},
{"name":"Kirov","coordinates":[49.6639029,58.6035257]},
{"name":"Ensenada","coordinates":[-116.62482460000001,31.860742]},
{"name":"Vientiane","coordinates":[102.6133707,17.9640988]},
{"name":"Podgorica","coordinates":[19.2621081,42.4415238]},
{"name":"Des Moines","coordinates":[-93.6037149,41.5910641]},
{"name":"Pitești","coordinates":[24.8719422,44.8572343]},
{"name":"Kishinev","coordinates":[28.8322534,47.0244707]},
{"name":"Yerevan","coordinates":[44.5125849,40.1776121]},
{"name":"Al-Qamishli","coordinates":[41.2328836,37.0402529]},
{"name":"Takoradi","coordinates":[-1.7519316,4.887401]},
{"name":"Khimki","coordinates":[37.4449896,55.8892847]},
{"name":"Gold Coast","coordinates":[153.4145987,-28.0023731]},
{"name":"Rivne","coordinates":[26.2513165,50.6196175]},
{"name":"Lutsk","coordinates":[25.320078,50.7450733]},
{"name":"Rybinsk","coordinates":[38.834637,58.050373]},
{"name":"Ivanovo","coordinates":[40.9737394,56.9984452]},
{"name":"Kostroma","coordinates":[40.9269141,57.7679158]},
{"name":"15th Arrondissement","coordinates":[2.3003827,48.8413705]},
{"name":"Prizren","coordinates":[20.7404242,42.2089656]},
{"name":"Salt Lake City","coordinates":[-111.8904308,40.7670126]},
{"name":"Gilbert","coordinates":[-111.7890239,33.3528259]},
{"name":"Salem","coordinates":[-123.033121,44.9391565]},
{"name":"San Bernardino","coordinates":[-117.2897652,34.1083449]},
{"name":"Reno","coordinates":[-119.81367440000001,39.52927]},
{"name":"Tucson","coordinates":[-110.9262353,32.2218917]},
{"name":"Phoenix","coordinates":[-112.0773456,33.4485866]},
{"name":"Oakland","coordinates":[-122.2713563,37.8044557]},
{"name":"Springfield","coordinates":[-93.2920373,37.2166779]},
{"name":"Albuquerque","coordinates":[-106.6509851,35.0841034]},
{"name":"Lubbock","coordinates":[-101.85516650000001,33.5778631]},
{"name":"Saint Paul","coordinates":[-93.1015026,44.9504037]},
{"name":"Denver","coordinates":[-104.984696,39.7391428]},
{"name":"Lincoln","coordinates":[-96.667821,40.8]},
{"name":"Little Rock","coordinates":[-92.2895948,34.7464809]},
{"name":"Jackson","coordinates":[-90.18476910000001,32.2990384]},
{"name":"Corpus Christi","coordinates":[-97.3955744,27.8002542]},
{"name":"Sioux Falls","coordinates":[-96.700327,43.5499749]},
{"name":"Baton Rouge","coordinates":[-91.18738,30.4459596]},
{"name":"Laredo","coordinates":[-99.5088979,27.5060991]},
{"name":"Indianapolis","coordinates":[-86.1583502,39.7683331]},
{"name":"Huntsville","coordinates":[-86.5859011,34.729847]},
{"name":"Chattanooga","coordinates":[-85.3096801,35.0456297]},
{"name":"Mobile","coordinates":[-88.0430541,30.6943566]},
{"name":"Montgomery","coordinates":[-86.3006485,32.3669656]},
{"name":"Atlanta","coordinates":[-84.3901849,33.7490987]},
{"name":"Winston-Salem","coordinates":[-80.2440518,36.0998131]},
{"name":"Tampa","coordinates":[-82.458444,27.9477595]},
{"name":"Columbus","coordinates":[-83.0007065,39.9622601]},
{"name":"Macon","coordinates":[-83.6324022,32.8406946]},
{"name":"Fort Lauderdale","coordinates":[-80.1433786,26.1223084]},
{"name":"Columbus","coordinates":[-84.9877094,32.4609764]},
{"name":"Tallahassee","coordinates":[-84.2809332,30.4380832]},
{"name":"Charlotte","coordinates":[-80.8431268,35.2270869]},
{"name":"Piraeus","coordinates":[23.6483599,37.9440078]},
{"name":"Saint Petersburg","coordinates":[-82.6695085,27.7703796]},
{"name":"Jacksonville","coordinates":[-81.655651,30.3321838]},
{"name":"Augusta","coordinates":[-81.9748429,33.4709714]},
{"name":"São Luís","coordinates":[-44.2933276,-2.5319224]},
{"name":"Elektrostal","coordinates":[38.4405711,55.7903785]},
{"name":"Fayetteville","coordinates":[-78.878292,35.0525759]},
{"name":"Buffalo","coordinates":[-78.8783922,42.8867166]},
{"name":"Washington D.C.","coordinates":[-77.0366456,38.8949549]},
{"name":"Greensboro","coordinates":[-79.7919754,36.0726355]},
{"name":"Durham","coordinates":[-78.9018053,35.996653]},
{"name":"Raleigh","coordinates":[-78.6390989,35.7803977]},
{"name":"Boston","coordinates":[-71.0582912,42.3602534]},
{"name":"Providence","coordinates":[-71.4128343,41.8239891]},
{"name":"Worcester","coordinates":[-71.80229340000001,42.2625932]},
{"name":"Rostov-on-Don","coordinates":[39.716486,47.2246949]},
{"name":"Tomsk","coordinates":[84.952324,56.488712]},
{"name":"Skopje","coordinates":[21.4316495,41.9960924]},
{"name":"Ruse","coordinates":[25.9542057,43.8480413]},
{"name":"Ambala","coordinates":[76.770421,30.3843674]},
{"name":"Chiang Mai","coordinates":[98.9880909,18.7905618]},
{"name":"Krasnoyarsk","coordinates":[92.87251470000001,56.0090968]},
{"name":"Kurgan","coordinates":[65.321877,55.45435]},
{"name":"Ganja","coordinates":[46.3564509,40.6794747]},
{"name":"Asahikawa","coordinates":[142.371544,43.758203]},
{"name":"Cherepovets","coordinates":[37.916389,59.128696]},
{"name":"Kure","coordinates":[132.637412,34.223569]},
{"name":"Syktyvkar","coordinates":[50.834958,61.6689734]},
{"name":"Yoshkar-Ola","coordinates":[47.8953961,56.6327144]},
{"name":"Yakutsk","coordinates":[129.732086,62.027287]},
{"name":"Makhachkala","coordinates":[47.49612,42.97554]},
{"name":"Saransk","coordinates":[45.18383,54.18671]},
{"name":"Abakan","coordinates":[91.438873,53.71529]},
{"name":"Petropavlovsk-Kamchatsky","coordinates":[158.6472187,53.0199693]},
{"name":"Astrakhan","coordinates":[48.031567,46.349854]},
{"name":"Vladimir","coordinates":[40.4075203,56.1288899]},
{"name":"Yuzhno-Sakhalinsk","coordinates":[142.727438,46.9574273]},
{"name":"Naberezhnye Chelny","coordinates":[52.3992173,55.7420117]},
{"name":"Surgut","coordinates":[73.3964,61.254032]},
{"name":"Volzhskiy","coordinates":[44.7779843,48.782102]},
{"name":"Sterlitamak","coordinates":[55.952259,53.632374]},
{"name":"Bratsk","coordinates":[101.63349070000001,56.1517085]},
{"name":"Komsomolsk-on-Amur","coordinates":[137.020782,50.550877]},
{"name":"Tambov","coordinates":[41.45536,52.72879]},
{"name":"Shakhty","coordinates":[40.2115699,47.7119167]},
{"name":"Angarsk","coordinates":[103.8826109,52.5311117]},
{"name":"Prokopyevsk","coordinates":[86.737663,53.890972]},
{"name":"Nizhnevartovsk","coordinates":[76.580368,60.934044]},
{"name":"Armavir","coordinates":[41.1252241,44.9986975]},
{"name":"Norilsk","coordinates":[88.200517,69.3498394]},
{"name":"Dzerzhinsk","coordinates":[43.4617405,56.2382157]},
{"name":"Zlatoust","coordinates":[59.6792625,55.1674213]},
{"name":"Kamensk-Uralsky","coordinates":[61.917797,56.415451]},
{"name":"Korolyov","coordinates":[37.8326289,55.9204898]},
{"name":"Novocherkassk","coordinates":[40.101986,47.41066]},
{"name":"Lyubertsy","coordinates":[37.89377,55.6783142]},
{"name":"Volgodonsk","coordinates":[42.1717606,47.5128177]},
{"name":"Nahodka","coordinates":[132.8926,42.8246489]},
{"name":"Miass","coordinates":[60.108337,55.065304]},
{"name":"Ussurijsk","coordinates":[131.9520752,43.7972447]},
{"name":"Latakia","coordinates":[35.7781044,35.5200185]},
{"name":"Fallujah","coordinates":[43.7875674,33.3532137]},
{"name":"Babruysk","coordinates":[29.2281209,53.1449683]},
{"name":"Manaus","coordinates":[-59.9825041,-3.1316333]},
{"name":"Ashdod","coordinates":[34.652994,31.7977307]},
{"name":"Holon","coordinates":[34.7804076,32.0193121]},
{"name":"Rishon LeZion","coordinates":[34.8101149,31.9635712]},
{"name":"Mar del Plata","coordinates":[-57.5482703,-37.9977225]},
{"name":"Mendoza","coordinates":[-68.8442956,-32.8897294]},
{"name":"Neuquén","coordinates":[-68.0592568,-38.9549296]},
{"name":"Posadas","coordinates":[-55.894295,-27.3664824]},
{"name":"Salta","coordinates":[-65.4103194,-24.7892946]},
{"name":"San Juan","coordinates":[-68.5251802,-31.5370909]},
{"name":"Santa Fe","coordinates":[-60.7019561,-31.6186951]},
{"name":"San Miguel de Tucumán","coordinates":[-65.2038133,-26.8303703]},
{"name":"Santiago del Estero","coordinates":[-64.2595062,-27.7877148]},
{"name":"Bahía Blanca","coordinates":[-62.266245,-38.7182364]},
{"name":"Formosa","coordinates":[-58.1744976,-26.1852983]},
{"name":"Gualeguaychu","coordinates":[-58.5103466,-33.0078585]},
{"name":"La Rioja","coordinates":[-66.8558795,-29.4127411]},
{"name":"Tuguegarao","coordinates":[121.7327065,17.6125761]},
{"name":"Manila","coordinates":[120.9799696,14.5906216]},
{"name":"Cabuyao","coordinates":[121.1235712,14.2795538]},
{"name":"Paranaque","coordinates":[120.9915488,14.5007016]},
{"name":"Dasmarinas","coordinates":[120.93708710000001,14.3270819]},
{"name":"Santa Rosa","coordinates":[121.112131,14.3143529]},
{"name":"Malaybalay","coordinates":[125.1304492,8.1553979]},
{"name":"Kabankalan","coordinates":[122.8134802,9.9889153]},
{"name":"Koronadal","coordinates":[124.8435601,6.5003721]},
{"name":"Las Pinas","coordinates":[120.9819099,14.4806089]},
{"name":"Calamba","coordinates":[121.1675675,14.2143059]},
{"name":"Biñan","coordinates":[121.0835962,14.3385061]},
{"name":"Helike","coordinates":[-0.6988488,38.2653181]},
{"name":"George Town","coordinates":[100.3303604,5.4166322]},
{"name":"Curitiba","coordinates":[-49.2712724,-25.4295963]},
{"name":"Kota Bharu","coordinates":[102.23934550000001,6.1256053]},
{"name":"Klang","coordinates":[101.4492077,3.0471533]},
{"name":"Matsuyama","coordinates":[132.7653521,33.8395188]},
{"name":"Hofuf","coordinates":[49.586973,25.3726249]},
{"name":"Natal","coordinates":[-35.2080905,-5.805398]},
{"name":"Fortaleza","coordinates":[-38.5217989,-3.7304512]},
{"name":"Isparta","coordinates":[30.5556933,37.77035]},
{"name":"Zakho","coordinates":[42.6822907,37.1433762]},
{"name":"Mexicali","coordinates":[-115.4440698,32.6200699]},
{"name":"Osorno","coordinates":[-73.1359011,-40.5733223]},
{"name":"Los Ángeles","coordinates":[-72.351686,-37.4707455]},
{"name":"Iquique","coordinates":[-70.1524646,-20.2140657]},
{"name":"Antofagasta","coordinates":[-70.3980033,-23.6463741]},
{"name":"Copiapó","coordinates":[-70.33227330000001,-27.3664897]},
{"name":"Kutaisi","coordinates":[42.705359,42.2716455]},
{"name":"Comodoro Rivadavia","coordinates":[-67.4807526,-45.8653443]},
{"name":"Salalah","coordinates":[54.0956972,17.0149036]},
{"name":"Muscat","coordinates":[58.5451305,23.5997857]},
{"name":"Castellón de la Plana","coordinates":[-0.0377354,39.9860347]},
{"name":"Karaj","coordinates":[51.0073853,35.8121955]},
{"name":"The Hague","coordinates":[4.3113461,52.0799838]},
{"name":"Utrecht","coordinates":[5.109708,52.0949753]},
{"name":"Bor","coordinates":[31.5587285,6.2039927]},
{"name":"13th Arrondissement","coordinates":[2.3555829,48.8323973]},
{"name":"Az Zubayr","coordinates":[47.7027042,30.3917664]},
{"name":"Adama","coordinates":[39.2705461,8.5410261]},
{"name":"Zurich","coordinates":[8.5423216,47.3723957]},
{"name":"Heidelberg","coordinates":[8.694724,49.4093582]},
{"name":"Mannheim","coordinates":[8.467236,49.489591]},
{"name":"Northern Friesland","coordinates":[8.8840629,54.6072964]},
{"name":"Freiburg im Breisgau","coordinates":[7.8494005,47.9960901]},
{"name":"Berlin","coordinates":[13.3888599,52.5170365]},
{"name":"Mainz","coordinates":[8.2710237,49.9999952]},
{"name":"Dusseldorf","coordinates":[6.7763137,51.2254018]},
{"name":"Almeria","coordinates":[-2.4628135,36.8414197]},
{"name":"Granada","coordinates":[-3.6021928,37.183054]},
{"name":"Taraz","coordinates":[71.3920902,42.8943882]},
{"name":"Karaganda","coordinates":[73.1044754,49.816592]},
{"name":"Pavlodar","coordinates":[76.9646409,52.2839774]},
{"name":"Oskemen","coordinates":[82.611923,49.95649]},
{"name":"Aktobe","coordinates":[57.2124606,50.2796448]},
{"name":"17th Arrondissement","coordinates":[2.3223639,48.8842239]},
{"name":"Temirtau","coordinates":[72.966066,50.0506837]},
{"name":"Kyzylorda","coordinates":[65.493294,44.857548]},
{"name":"Vitebsk","coordinates":[30.2070437,55.1930197]},
{"name":"Baranovichi","coordinates":[26.0184156,53.1322925]},
{"name":"Vitória","coordinates":[-40.3376682,-20.3200917]},
{"name":"Yining/Qulja","coordinates":[81.27477970000001,43.9052027]},
{"name":"Goiânia","coordinates":[-49.2532691,-16.680882]},
{"name":"Aracaju","coordinates":[-37.0774655,-10.9162061]},
{"name":"Maceió","coordinates":[-35.7339264,-9.6476843]},
{"name":"Saitama","coordinates":[139.6457957,35.8616402]},
{"name":"Sargodha","coordinates":[72.6782574,32.0898005]},
{"name":"Chiniot","coordinates":[72.9800348,31.7219942]},
{"name":"Aksu/Akesu","coordinates":[80.2734726,41.165587]},
{"name":"Altay","coordinates":[88.1283384,47.8260517]},
{"name":"Alxa Left Banner","coordinates":[105.6622773,38.8358584]},
{"name":"Anqing","coordinates":[117.1098142,30.5347276]},
{"name":"Ankang","coordinates":[108.9903977,32.7330178]},
{"name":"Anshun","coordinates":[105.92778050000001,26.2496958]},
{"name":"Anshan","coordinates":[122.99004420000001,41.1075692]},
{"name":"Anyang","coordinates":[114.33633,36.1023552]},
{"name":"Artux/Atushi","coordinates":[76.1698676,39.7133298]},
{"name":"Baicheng","coordinates":[122.865279,45.6098635]},
{"name":"Baiyin","coordinates":[104.1338979,36.5458781]},
{"name":"Baoan District","coordinates":[113.8789746,22.5580925]},
{"name":"Baotou","coordinates":[109.8303243,40.660201]},
{"name":"Baoji","coordinates":[107.23321840000001,34.3645811]},
{"name":"Beihai","coordinates":[109.1068061,21.4799081]},
{"name":"Bayannur","coordinates":[107.3977117,40.7560985]},
{"name":"Benxi Manchu","coordinates":[124.1245195,41.3005524]},
{"name":"Bortala/Bole","coordinates":[82.05025540000001,44.8749688]},
{"name":"Benxi","coordinates":[123.7594197,41.2922207]},
{"name":"Bengbu","coordinates":[117.3825673,32.9176422]},
{"name":"Cangzhou","coordinates":[116.85115970000001,38.3042796]},
{"name":"Baise","coordinates":[106.6153867,23.9051104]},
{"name":"Binzhou","coordinates":[117.9647262,37.3821206]},
{"name":"Changchun","coordinates":[125.3178222,43.8844498]},
{"name":"Changji/Sanji","coordinates":[87.3166682,44.0166615]},
{"name":"Chaozhou","coordinates":[116.6205482,23.6566146]},
{"name":"Chaoyang","coordinates":[120.4390738,41.5754767]},
{"name":"Changde","coordinates":[111.6927445,29.0340526]},
{"name":"Chenzhou","coordinates":[113.02968290000001,25.7949974]},
{"name":"Chifeng","coordinates":[118.9426131,42.2799929]},
{"name":"Changzhi City","coordinates":[113.0985394,36.1829336]},
{"name":"Chengdu","coordinates":[104.06127830000001,30.6765553]},
{"name":"Chuzhou","coordinates":[118.3280486,32.2545901]},
{"name":"Changzhou","coordinates":[119.9692045,31.8129864]},
{"name":"Lucheng","coordinates":[101.5440836,25.0359599]},
{"name":"Datong","coordinates":[113.29524280000001,40.0922886]},
{"name":"Daqing","coordinates":[125.1014811,46.5969028]},
{"name":"Dazhou","coordinates":[107.50275640000001,31.216036]},
{"name":"Zhangjiajie","coordinates":[110.4816207,29.1299011]},
{"name":"Dingxi","coordinates":[104.6165316,35.5776859]},
{"name":"Ezhou","coordinates":[114.87842970000001,30.4079084]},
{"name":"Dongying","coordinates":[118.66893490000001,37.4334738]},
{"name":"Dezhou","coordinates":[116.305416,37.4486676]},
{"name":"Dandong","coordinates":[124.3863404,40.128668]},
{"name":"Foshan","coordinates":[113.11463350000001,23.0247687]},
{"name":"Fanchang","coordinates":[118.20006830000001,31.0855894]},
{"name":"Fuzhou","coordinates":[116.353245,27.9957951]},
{"name":"Fuyang","coordinates":[115.8090001,32.8926763]},
{"name":"Fuzhou","coordinates":[119.30338370000001,26.0797124]},
{"name":"Ganzhou","coordinates":[114.93463960000001,25.8563093]},
{"name":"Fuxin","coordinates":[121.6452868,42.0151733]},
{"name":"Guilin","coordinates":[110.29123310000001,25.2815358]},
{"name":"Guyuan","coordinates":[106.28515990000001,36.0106323]},
{"name":"Fushun","coordinates":[123.9479581,41.8866162]},
{"name":"Guiyang","coordinates":[106.7052544,26.5814112]},
{"name":"Guangzhou","coordinates":[113.25929450000001,23.1301964]},
{"name":"Gu'an","coordinates":[116.2971492,39.4442832]},
{"name":"Hebi","coordinates":[114.2915957,35.7479577]},
{"name":"Hegang","coordinates":[130.2836718,47.3355856]},
{"name":"Hanzhong","coordinates":[107.01844360000001,33.0692819]},
{"name":"Haikou","coordinates":[110.3409936,20.0423626]},
{"name":"Hami","coordinates":[93.5127738,42.8353592]},
{"name":"Yizhou","coordinates":[93.51347670000001,42.826072]},
{"name":"Handan","coordinates":[114.483333,36.583333]},
{"name":"Hangzhou","coordinates":[120.2052342,30.2489634]},
{"name":"Houma","coordinates":[111.362708,35.6254159]},
{"name":"Hotan/Hetian","coordinates":[79.9196814,37.1144637]},
{"name":"Huai'an","coordinates":[119.0211943,33.5897018]},
{"name":"Huainan","coordinates":[117.0130019,32.5866826]},
{"name":"Huaihua","coordinates":[109.96415660000001,27.554599]},
{"name":"Huaibei","coordinates":[116.7928916,33.9566098]},
{"name":"Hengshui","coordinates":[115.6677229,37.7364305]},
{"name":"Hohhot","coordinates":[111.67307880000001,40.8337963]},
{"name":"Heyuan","coordinates":[114.692015,23.7379776]},
{"name":"Heze","coordinates":[115.44647610000001,35.2477266]},
{"name":"Hunchun","coordinates":[130.3590996,42.859235]},
{"name":"Huocheng/Korgas","coordinates":[80.87661340000001,44.0546801]},
{"name":"Huangshan","coordinates":[118.3215698,29.7125012]},
{"name":"Huizhou","coordinates":[114.4141105,23.1060862]},
{"name":"Huangshi","coordinates":[115.0670135,30.2134399]},
{"name":"Huanggang","coordinates":[114.8653378,30.4494243]},
{"name":"Huanren Manchu Autonomous County","coordinates":[125.3490074,41.2692381]},
{"name":"Ji'an","coordinates":[114.9835744,27.1144788]},
{"name":"Jinhua","coordinates":[119.64864870000001,29.1080344]},
{"name":"Jīngzhōu City","coordinates":[112.18809580000001,30.3543831]},
{"name":"Baishan","coordinates":[126.4200169,41.9316387]},
{"name":"Jingmen","coordinates":[112.1973384,31.0348589]},
{"name":"Jining","coordinates":[116.5849266,35.4125047]},
{"name":"Jiaozuo","coordinates":[113.2533977,35.2075729]},
{"name":"Jinchang","coordinates":[102.185973,38.5206719]},
{"name":"Jingdezhen","coordinates":[117.204121,29.2909294]},
{"name":"Jinan","coordinates":[117.11400420000001,36.6507007]},
{"name":"Jiaxing","coordinates":[120.7471637,30.7633441]},
{"name":"Jincheng","coordinates":[112.85198620000001,35.493783]},
{"name":"Kelamayi/Karamay","coordinates":[84.8658499,45.5983043]},
{"name":"Kaifeng","coordinates":[114.3472038,34.7961106]},
{"name":"Kaili","coordinates":[107.97621210000001,26.5884307]},
{"name":"Jiujiang","coordinates":[115.99131340000001,29.7275361]},
{"name":"Tongliao","coordinates":[122.2497308,43.6392011]},
{"name":"Jishou","coordinates":[109.69507820000001,28.2637217]},
{"name":"Jinzhong","coordinates":[112.73834140000001,37.6866796]},
{"name":"Jilin","coordinates":[126.5434936,43.8357587]},
{"name":"Jinzhou","coordinates":[121.1194219,41.108528]},
{"name":"Lengshuitan","coordinates":[111.5872813,26.4640619]},
{"name":"Langfang","coordinates":[116.6997446,39.5128345]},
{"name":"Láiwú","coordinates":[117.6699251,36.2138623]},
{"name":"Leshan","coordinates":[103.7619922,29.5608755]},
{"name":"Huludao","coordinates":[120.8404789,40.7515443]},
{"name":"Kuitun/Kuytun","coordinates":[84.9006885,44.4245113]},
{"name":"Laibin","coordinates":[109.229512,23.7364519]},
{"name":"Kashi/Kashgar","coordinates":[75.98497610000001,39.4722799]},
{"name":"Linxia","coordinates":[103.21079920000001,35.5959451]},
{"name":"Liuzhou","coordinates":[109.4066186,24.3213044]},
{"name":"Longyan","coordinates":[117.0151162,25.0974393]},
{"name":"Longnan","coordinates":[104.9313723,33.387124]},
{"name":"Lishui","coordinates":[119.9184297,28.4704064]},
{"name":"Linyi","coordinates":[118.3506988,35.1032403]},
{"name":"Lianyungang","coordinates":[119.1695305,34.6092633]},
{"name":"Lincang","coordinates":[100.08900460000001,23.8789593]},
{"name":"Liaocheng","coordinates":[115.9642007,36.4441808]},
{"name":"Korla/Ku'erle","coordinates":[86.173541,41.7238743]},
{"name":"Linfen","coordinates":[111.381767,36.229963]},
{"name":"Liaoyuan","coordinates":[125.1486485,42.8951884]},
{"name":"Yongzhou","coordinates":[111.5922491,26.4511303]},
{"name":"Meizhou","coordinates":[116.11774360000001,24.3053552]},
{"name":"Mianyang","coordinates":[104.750108,31.458932]},
{"name":"Minhe Hui and Tu Autonomous County","coordinates":[102.8058806,36.3290875]},
{"name":"Lu'an","coordinates":[116.51422520000001,31.7383487]},
{"name":"Lüliang","coordinates":[111.1444891,37.5200946]},
{"name":"Loudi","coordinates":[112.0021701,27.7343117]},
{"name":"Luoyang","coordinates":[112.4209629,34.6556873]},
{"name":"Liupanshui","coordinates":[104.8393163,26.5927706]},
{"name":"Ma'anshan","coordinates":[118.50483770000001,31.6866105]},
{"name":"Luohe","coordinates":[114.0285163,33.5720554]},
{"name":"Luzhou","coordinates":[105.4383176,28.8743249]},
{"name":"Pingdingshan","coordinates":[113.2981436,33.7374744]},
{"name":"Ningde","coordinates":[119.5224895,26.6655699]},
{"name":"Panzhihua","coordinates":[101.71792760000001,26.5860102]},
{"name":"Ningbo","coordinates":[121.5442007,29.8753006]},
{"name":"Panjin","coordinates":[122.0655098,41.1169056]},
{"name":"Nanjing","coordinates":[118.79164580000001,32.0609736]},
{"name":"Nanchang","coordinates":[115.8885987,28.6792695]},
{"name":"Nanchong","coordinates":[106.08355390000001,30.7955696]},
{"name":"Qingdao","coordinates":[120.3497193,36.0895093]},
{"name":"Nanyang","coordinates":[112.52926930000001,33.0010496]},
{"name":"Nantong","coordinates":[120.8904588,31.9827896]},
{"name":"Qiqihar","coordinates":[123.91159440000001,47.3527088]},
{"name":"Qitaihe","coordinates":[131.0074987,45.7700345]},
{"name":"Nanping","coordinates":[118.173639,26.6417374]},
{"name":"Qingyuan","coordinates":[113.05059940000001,23.6832984]},
{"name":"Qingyang","coordinates":[107.64984360000001,35.7288923]},
{"name":"Pishan/Guma","coordinates":[78.2791976,37.6181668]},
{"name":"Pingliang","coordinates":[106.67985440000001,35.5410175]},
{"name":"Chamdo","coordinates":[97.2368352,30.778077]},
{"name":"Shaoyang","coordinates":[111.4589576,27.2393845]},
{"name":"Karub","coordinates":[97.2747216,31.4262689]},
{"name":"Putian","coordinates":[119.0074625,25.4342199]},
{"name":"Shaoxing","coordinates":[120.576854,29.9992425]},
{"name":"Shangluo","coordinates":[109.93538760000001,33.8678555]},
{"name":"Shaoguan","coordinates":[113.59235640000001,24.8134099]},
{"name":"Shangqiu","coordinates":[115.6508622,34.417097]},
{"name":"Sanming","coordinates":[117.6038491,26.2367951]},
{"name":"Sanmenxia","coordinates":[111.1908398,34.7678842]},
{"name":"Shantou","coordinates":[116.6775918,23.356377]},
{"name":"Shangrao","coordinates":[117.9724453,28.450122]},
{"name":"Quanzhou","coordinates":[118.5851458,24.9038801]},
{"name":"Rizhao","coordinates":[119.5214512,35.4150703]},
{"name":"Quzhou","coordinates":[118.8648514,28.9657792]},
{"name":"Taiyuan","coordinates":[112.5561744,37.8561856]},
{"name":"Tangshan","coordinates":[118.1739275,39.6293065]},
{"name":"Suihua","coordinates":[126.9870127,46.6420316]},
{"name":"Taizhou","coordinates":[119.9117284,32.4849554]},
{"name":"Suqian","coordinates":[118.2945375,33.9564492]},
{"name":"Tangxian","coordinates":[114.9730506,38.7447452]},
{"name":"Suzhou","coordinates":[116.95880620000001,33.6482366]},
{"name":"Suizhou","coordinates":[113.3644933,31.7161169]},
{"name":"Tacheng","coordinates":[82.97973180000001,46.7468826]},
{"name":"Tai'an","coordinates":[117.08093160000001,36.2002968]},
{"name":"Shuangyashan","coordinates":[131.1524464,46.6440029]},
{"name":"Shihezi","coordinates":[86.0528381,44.298891]},
{"name":"Siping","coordinates":[124.3443749,43.1641529]},
{"name":"Shizuishan","coordinates":[106.3610612,39.0151348]},
{"name":"Weihai","coordinates":[122.1152445,37.5122216]},
{"name":"Pu'er","coordinates":[100.9707544,22.77326]},
{"name":"Shiyan","coordinates":[110.7782466,32.6420675]},
{"name":"Weinan","coordinates":[109.45728480000001,34.5037437]},
{"name":"Wusu/Sixw","coordinates":[84.71114750000001,44.4172357]},
{"name":"Ürümqi/Wulumuqi","coordinates":[87.6140244,43.7959127]},
{"name":"Ulanqab","coordinates":[113.1315646,40.9902685]},
{"name":"Turpan/Tulufan","coordinates":[89.1816874,42.9424757]},
{"name":"Tonghua","coordinates":[125.91704550000001,41.7225544]},
{"name":"Tongren","coordinates":[109.18383480000001,27.7223474]},
{"name":"Tongchuan","coordinates":[108.94617810000001,34.9034852]},
{"name":"Tieling","coordinates":[123.83944690000001,42.2895507]},
{"name":"Tianshui","coordinates":[105.70629210000001,34.5797531]},
{"name":"Xia","coordinates":[111.21449480000001,35.1417802]},
{"name":"Tongling","coordinates":[117.8089039,30.9345628]},
{"name":"Xi'an","coordinates":[108.9424252,34.2660171]},
{"name":"Tianjin","coordinates":[117.1980785,39.1235635]},
{"name":"Xianning","coordinates":[114.2760435,29.8757965]},
{"name":"Xiaogan","coordinates":[113.90756390000001,30.9187372]},
{"name":"Xianyang","coordinates":[108.7234362,34.3075655]},
{"name":"Xiangyang","coordinates":[112.14637590000001,32.0189235]},
{"name":"Xiangtan","coordinates":[112.903746,27.8579746]},
{"name":"Xiamen","coordinates":[118.07453910000001,24.4586961]},
{"name":"Wuhan","coordinates":[114.2708911,30.5742793]},
{"name":"Wenzhou","coordinates":[120.6558736,28.0152686]},
{"name":"Yichun","coordinates":[114.37725010000001,27.7971551]},
{"name":"Yichun","coordinates":[128.8799956,47.7211461]},
{"name":"Wuhu","coordinates":[118.42774770000001,31.3536127]},
{"name":"Yantai","coordinates":[121.389463,37.5340488]},
{"name":"Wuwei","coordinates":[102.6359886,37.928881]},
{"name":"Yanji","coordinates":[129.5008425,42.8888552]},
{"name":"Wuzhong","coordinates":[106.1961109,37.9822616]},
{"name":"Yingshan","coordinates":[106.57517940000001,31.0790943]},
{"name":"Yingkou","coordinates":[122.2357736,40.6747155]},
{"name":"Yibin","coordinates":[104.6353116,28.7657927]},
{"name":"Yingtan","coordinates":[117.0278246,28.2428093]},
{"name":"Yongde","coordinates":[99.2573316,24.0276877]},
{"name":"Yongchang","coordinates":[101.97109080000001,38.2446955]},
{"name":"Xining","coordinates":[101.7729898,36.6219037]},
{"name":"Yiyang","coordinates":[112.32117830000001,28.5929656]},
{"name":"Xingtai","coordinates":[114.4921929,37.0658469]},
{"name":"Xiongxian","coordinates":[116.09882540000001,38.9845054]},
{"name":"Xingyi","coordinates":[104.8974498,25.0917444]},
{"name":"Xinxiang","coordinates":[113.8780633,35.2992063]},
{"name":"Xinyang","coordinates":[114.06765960000001,32.127372]},
{"name":"Xuancheng","coordinates":[118.7540167,30.9412541]},
{"name":"Xuchang","coordinates":[113.8237291,34.0316195]},
{"name":"Yangquan","coordinates":[113.5730276,37.85862]},
{"name":"Yangjiang","coordinates":[111.95935,21.8526328]},
{"name":"Yangzhou","coordinates":[119.4365759,32.3926973]},
{"name":"Xinyu","coordinates":[114.9332852,27.8007391]},
{"name":"Yan'an","coordinates":[109.48407320000001,36.5836388]},
{"name":"Yancheng","coordinates":[120.1349541,33.3939707]},
{"name":"Zhumadian","coordinates":[114.0164565,33.0115818]},
{"name":"Zhuzhou","coordinates":[113.1482168,27.8394983]},
{"name":"Zhoushan","coordinates":[122.2030363,29.9873344]},
{"name":"Zhuhai","coordinates":[113.5462439,22.2305196]},
{"name":"Yichang","coordinates":[111.27501810000001,30.7031196]},
{"name":"Zunyi","coordinates":[106.9232185,27.7293815]},
{"name":"Zigong","coordinates":[104.7765295,29.3367271]},
{"name":"Zibo","coordinates":[118.0444472,36.8047833]},
{"name":"Xinzhou","coordinates":[112.730463,38.4139173]},
{"name":"Yueyang","coordinates":[113.095513,29.3691365]},
{"name":"Shuozhou","coordinates":[112.43007,39.3183091]},
{"name":"Yulin","coordinates":[109.74757670000001,38.2951481]},
{"name":"Yuncheng","coordinates":[111.002141,35.027637]},
{"name":"Yulin","coordinates":[110.1498186,22.6354097]},
{"name":"Yuxi","coordinates":[102.5397072,24.3578557]},
{"name":"Zaoshuang","coordinates":[117.3178371,34.8093451]},
{"name":"Zepu/Poskam","coordinates":[77.2740038,38.1861264]},
{"name":"Zhangjiakou","coordinates":[114.8798804,40.7664001]},
{"name":"Zhangye","coordinates":[100.4556326,38.9365134]},
{"name":"Zhaoqing","coordinates":[112.4728451,23.0515551]},
{"name":"Zhangzhou","coordinates":[117.6496027,24.5081859]},
{"name":"Zhengzhou","coordinates":[113.6524076,34.7591877]},
{"name":"Zhenjiang","coordinates":[119.458012,32.2139599]},
{"name":"Zhanjiang","coordinates":[110.4045975,21.2021916]},
{"name":"Meishan","coordinates":[103.8284394,30.0474159]},
{"name":"Zhongshan","coordinates":[113.3656141,22.5213807]},
{"name":"Ziyang","coordinates":[104.64811440000001,30.1235983]},
{"name":"Guang'an","coordinates":[106.63319580000001,30.4591677]},
{"name":"Bazhong","coordinates":[106.754751,31.8590183]},
{"name":"Guangyuan","coordinates":[105.8563402,32.4329637]},
{"name":"Zhoukou","coordinates":[114.6423617,33.6306299]},
{"name":"Suining","coordinates":[105.574542,30.5061493]},
{"name":"Yinchuan","coordinates":[106.2116014,38.4829194]},
{"name":"Deyang","coordinates":[104.39013,31.1244028]},
{"name":"Yulong","coordinates":[100.2352936,26.8260494]},
{"name":"Zhongwei","coordinates":[105.1690817,37.5062172]},
{"name":"Chizhou","coordinates":[117.4859885,30.6671088]},
{"name":"Bozhou","coordinates":[115.772453,33.8579594]},
{"name":"Suzhou","coordinates":[120.5810725,31.3016935]},
{"name":"Longgang District","coordinates":[114.2426346,22.7230879]},
{"name":"Xigong","coordinates":[112.4331588,34.6782279]},
{"name":"Puyang","coordinates":[115.02340710000001,35.7631348]},
{"name":"Linjiang","coordinates":[126.91283340000001,41.8092486]},
{"name":"Songyuan","coordinates":[124.81125530000001,45.1437772]},
{"name":"Shanwei","coordinates":[115.35412590000001,22.7752816]},
{"name":"Luohu District","coordinates":[114.1260302,22.5514086]},
{"name":"Cotabato","coordinates":[124.23517140000001,7.1970344]},
{"name":"Samarkand","coordinates":[66.9758026,39.6547869]},
{"name":"Qarshi","coordinates":[65.79279480000001,38.83998]},
{"name":"Nukus","coordinates":[59.6052217,42.4585258]},
{"name":"Fergana","coordinates":[71.7890479,40.3791469]},
{"name":"Namangan","coordinates":[71.67262380000001,40.9996482]},
{"name":"Thiruvananthapuram","coordinates":[76.9570481,8.5058909]},
{"name":"Thanjavur","coordinates":[79.1381497,10.7860267]},
{"name":"Udhagamandalam","coordinates":[76.7030504,11.4126769]},
{"name":"Mangaluru","coordinates":[74.8430082,12.8698101]},
{"name":"Coimbatore","coordinates":[76.9628425,11.0018115]},
{"name":"Shivamogga","coordinates":[75.569737,13.9311723]},
{"name":"Nandyal","coordinates":[78.4806592,15.4736293]},
{"name":"Raichur","coordinates":[77.3568535,16.2024951]},
{"name":"Vijayapura","coordinates":[75.7175387,16.8269911]},
{"name":"Tenali","coordinates":[80.6464219,16.2377735]},
{"name":"Sangli","coordinates":[74.59488850000001,16.8502534]},
{"name":"Kalaburagi","coordinates":[76.8334228,17.3310003]},
{"name":"Hyderabad","coordinates":[78.4746286,17.3616079]},
{"name":"Visakhapatnam","coordinates":[83.30128420000001,17.7231276]},
{"name":"Latur","coordinates":[76.562087,18.3983393]},
{"name":"Solapur","coordinates":[75.8975502,17.6715272]},
{"name":"Bidar","coordinates":[77.52453290000001,17.9142593]},
{"name":"Jalna","coordinates":[75.8824868,19.8409163]},
{"name":"Aurangabad","coordinates":[75.3277803,19.8739536]},
{"name":"Chandrapur","coordinates":[79.2986673,19.9508161]},
{"name":"Cuttack","coordinates":[85.8792,20.4686]},
{"name":"Nashik","coordinates":[73.7902364,20.0112475]},
{"name":"Malegaon","coordinates":[74.5242544,20.5575459]},
{"name":"Akola","coordinates":[77.002632,20.7116604]},
{"name":"Dhule","coordinates":[74.7732,20.898]},
{"name":"Bilaspur","coordinates":[82.1476475,22.0785627]},
{"name":"Kolkata","coordinates":[88.3476023,22.5677459]},
{"name":"Ahmedabad","coordinates":[72.57970680000001,23.0216238]},
{"name":"Indore","coordinates":[75.8682103,22.7203851]},
{"name":"Jabalpur","coordinates":[79.9497702,23.1608938]},
{"name":"Bhopal","coordinates":[77.3962718,23.2530923]},
{"name":"Aizawl","coordinates":[92.7209297,23.7414092]},
{"name":"Agartala","coordinates":[91.2823821,23.8312377]},
{"name":"Deoghar","coordinates":[86.6977106,24.4904945]},
{"name":"Rewa, Madhya Pradesh","coordinates":[81.2934,24.5359]},
{"name":"Gaya","coordinates":[85.0079563,24.7964355]},
{"name":"Sasaram","coordinates":[84.0148733,24.9509656]},
{"name":"Malda","coordinates":[88.13984830000001,25.0057449]},
{"name":"Kota","coordinates":[75.8574194,25.1737019]},
{"name":"Bhagalpur","coordinates":[86.9828131,25.2494829]},
{"name":"Allahabad","coordinates":[81.8338005,25.4381302]},
{"name":"Shillong","coordinates":[91.8828027,25.5760154]},
{"name":"Bhilwara","coordinates":[74.636,25.348]},
{"name":"Arrah","coordinates":[84.6612934,25.5596879]},
{"name":"Chhapra","coordinates":[84.7514507,25.7784105]},
{"name":"Jodhpur","coordinates":[73.0351433,26.2967719]},
{"name":"Ajmer","coordinates":[74.639,26.4691]},
{"name":"Purnia","coordinates":[87.4731227,25.7773601]},
{"name":"Faizabad","coordinates":[82.1427,26.7789192]},
{"name":"Lucknow","coordinates":[80.93460010000001,26.8381]},
{"name":"Sirsa","coordinates":[75.0377649,29.5372849]},
{"name":"Yamunanagar","coordinates":[77.286329,30.1231349]},
{"name":"Amritsar","coordinates":[74.8736788,31.6343083]},
{"name":"Puebla","coordinates":[-98.1984744,19.0437227]},
{"name":"Dashoguz","coordinates":[59.9777883,41.8394375]},
{"name":"Khujand","coordinates":[69.6389657,40.2828032]},
{"name":"Kokand","coordinates":[70.92789830000001,40.5361326]},
{"name":"Margilan","coordinates":[71.7205162,40.4696255]},
{"name":"Quva","coordinates":[72.0712804,40.5251446]},
{"name":"Kaluga","coordinates":[36.2598115,54.5101087]},
{"name":"Navoiy","coordinates":[65.3734221,40.1034582]},
{"name":"Governador Valadares","coordinates":[-41.9458753,-18.8539497]},
{"name":"Belo Horizonte","coordinates":[-43.9450948,-19.9227318]},
{"name":"Uberlândia","coordinates":[-48.2767837,-18.9188041]},
{"name":"Andijan","coordinates":[72.3506746,40.7833471]},
{"name":"Ad Diwaniyah","coordinates":[44.9236266,31.9853304]},
{"name":"Kirkuk","coordinates":[44.3964846,35.4701099]},
{"name":"As Samawah","coordinates":[45.2826616,31.3078736]},
{"name":"Nasiriyah","coordinates":[46.2575523,31.0440068]},
{"name":"Al Hillah","coordinates":[44.4328131,32.482245]},
{"name":"Baqubah","coordinates":[44.6495225,33.7437267]},
{"name":"Seville","coordinates":[-5.9953171,37.3886303]},
{"name":"Kosti","coordinates":[32.6725113,13.1521864]},
{"name":"Al-Ubayyid","coordinates":[30.222559,13.183366]},
{"name":"Nouakchott","coordinates":[-15.9780071,18.0792379]},
{"name":"Saint-Louis","coordinates":[-16.5048686,16.0280445]},
{"name":"Riobamba","coordinates":[-78.6486465,-1.6731483]},
{"name":"Portoviejo","coordinates":[-80.4533134,-1.0529517]},
{"name":"Cantón Santo Domingo de los Colorados","coordinates":[-79.1758315,-0.2444498]},
{"name":"Vinnytsia","coordinates":[28.467975,49.2320162]},
{"name":"Asuncion","coordinates":[-57.6311196,-25.2959916]},
{"name":"Santiago de los Caballeros","coordinates":[-70.6906112,19.4502926]},
{"name":"La Romana","coordinates":[-68.9734597,18.4272786]},
{"name":"Bahawalpur","coordinates":[71.6638747,29.394644]},
{"name":"Sevastopol","coordinates":[33.5220842,44.6054434]},
{"name":"Khanewal","coordinates":[71.9278916,30.3022528]},
{"name":"Khmelnytskyi","coordinates":[26.9793793,49.4196404]},
{"name":"Okara","coordinates":[73.44933010000001,30.8091281]},
{"name":"Sahiwal","coordinates":[73.1110572,30.6715098]},
{"name":"Bata","coordinates":[9.768665,1.8650897]},
{"name":"Chita","coordinates":[113.500893,52.033409]},
{"name":"Zhytomyr","coordinates":[28.6692345,50.2598298]},
{"name":"Simferopol","coordinates":[34.1024858,44.9521457]},
{"name":"Morogoro","coordinates":[37.6693891,-6.8161626]},
{"name":"Zelenograd","coordinates":[37.1984616,55.9964173]},
{"name":"Arequipa","coordinates":[-71.5369607,-16.3988667]},
{"name":"Lugansk","coordinates":[39.2912928,48.5674507]},
{"name":"Dera Ghazi Khan","coordinates":[70.6401114,30.0321374]},
{"name":"Muzaffargarh","coordinates":[71.1888419,30.0778083]},
{"name":"Juliaca","coordinates":[-70.132216,-15.4915945]},
{"name":"Sungai Petani","coordinates":[100.49160540000001,5.6439426]},
{"name":"Tumpat","coordinates":[102.16819330000001,6.1983831]},
{"name":"Taiping","coordinates":[100.73716,4.847834]},
{"name":"Johor Bahru","coordinates":[103.7550839,1.4953041]},
{"name":"Toliara","coordinates":[43.66966,-23.354173]},
{"name":"Mahajanga","coordinates":[46.3172577,-15.7181492]},
{"name":"Valenzuela","coordinates":[120.9461718,14.707735]},
{"name":"Makati","coordinates":[121.023532,14.5568853]},
{"name":"San Pedro","coordinates":[121.0531876,14.363668]},
{"name":"Bila Tserkva","coordinates":[30.1116924,49.8038191]},
{"name":"Kherson","coordinates":[32.6145315,46.640176]},
{"name":"Arusha","coordinates":[36.6915518,-3.3669557]},
{"name":"Tanga","coordinates":[39.0993457,-5.0721976]},
{"name":"Tacoma","coordinates":[-122.43987460000001,47.2495798]},
{"name":"Porto Velho","coordinates":[-63.8735438,-8.7494525]},
{"name":"Semarang","coordinates":[110.42294550000001,-6.9904038]},
{"name":"Sariwon","coordinates":[125.7555447,38.50935]},
{"name":"Haeju","coordinates":[125.71400860000001,38.0401144]},
{"name":"Gorlovka","coordinates":[38.0027664,48.3058686]},
{"name":"Makeevka","coordinates":[37.9635093,48.0448144]},
{"name":"Hamhung","coordinates":[127.54397940000001,39.915463]},
{"name":"Sinpho","coordinates":[128.1914944,40.0316049]},
{"name":"Hoeryong","coordinates":[129.7542469,42.4342802]},
{"name":"Sinuiju","coordinates":[124.3977559,40.0940758]},
{"name":"Battambang","coordinates":[103.19666590000001,13.0998526]},
{"name":"Daegu","coordinates":[128.55995180000002,35.8494916]},
{"name":"Daejeon","coordinates":[127.384902,36.3496963]},
{"name":"Seongnam-si","coordinates":[127.1262092,37.4201556]},
{"name":"Gyeongju-si","coordinates":[129.2248811,35.8556705]},
{"name":"Andong-si","coordinates":[128.7260798,36.5634886]},
{"name":"Mokpo-si","coordinates":[126.3847547,34.7903335]},
{"name":"Changwon","coordinates":[128.6818586,35.227956]},
{"name":"Ansan-si","coordinates":[126.8308604,37.3217152]},
{"name":"Suwon-si","coordinates":[127.02874720000001,37.2633325]},
{"name":"Siem Reap","coordinates":[103.8590321,13.3617562]},
{"name":"Sana'a","coordinates":[44.2005197,15.342101]},
{"name":"Tripoli","coordinates":[35.8225116,34.4453581]},
{"name":"Cebu City","coordinates":[123.8930839,10.3090298]},
{"name":"Sihanoukville","coordinates":[103.5223365,10.6220485]},
{"name":"Camagüey","coordinates":[-77.9188009,21.3822081]},
{"name":"Holguín","coordinates":[-76.2592587,20.8870943]},
{"name":"Santiago de Cuba","coordinates":[-75.8217639,20.0223513]},
{"name":"Kitchener","coordinates":[-80.494423,43.453168]},
{"name":"Surakarta","coordinates":[110.828448,-7.5692462]},
{"name":"Abu Dhabi","coordinates":[54.3705762,24.4747961]},
{"name":"Mzuzu","coordinates":[34.0226422,-11.4607518]},
{"name":"Dili","coordinates":[125.5784093,-8.5536809]},
{"name":"Kupang","coordinates":[123.6017755,-10.1632209]},
{"name":"Ras al-Khaimah","coordinates":[55.938232,25.7737705]},
{"name":"Ajman","coordinates":[55.4451432,25.3936557]},
{"name":"Obihiro","coordinates":[143.1966324,42.923809]},
{"name":"Tomakomai","coordinates":[141.60554530000002,42.6340602]},
{"name":"Ta'izz","coordinates":[44.0215268,13.5752242]},
{"name":"Aden","coordinates":[45.028504,12.789585]},
{"name":"Tokushima","coordinates":[134.55503530000001,34.0698307]},
{"name":"Hyesan","coordinates":[128.1778143,41.4034649]},
{"name":"Jongju","coordinates":[125.21012970000001,39.6929225]},
{"name":"Kanggye","coordinates":[126.5975399,40.9659004]},
{"name":"Kusong","coordinates":[125.252058,39.9792248]},
{"name":"Bandung","coordinates":[107.60495390000001,-6.9344694]},
{"name":"Sylhet","coordinates":[91.8685271,24.89922]},
{"name":"Brasov","coordinates":[25.6102746,45.6523093]},
{"name":"Tokyo","coordinates":[139.7594549,35.6828387]},
{"name":"Cherkasy","coordinates":[32.0587805,49.4447888]},
{"name":"Sumy","coordinates":[34.798386,50.9070007]},
{"name":"Kremenchuk","coordinates":[33.4325,49.0797222]},
{"name":"Lisbon","coordinates":[-9.1365919,38.7077507]},
{"name":"La Paz","coordinates":[-110.32350670000001,24.1488324]},
{"name":"Cartagena","coordinates":[-75.52712240000001,10.4195841]},
{"name":"Hefei","coordinates":[117.2218033,31.8228094]},
{"name":"Medan","coordinates":[98.6738261,3.5896654]},
{"name":"Ibb","coordinates":[44.1779446,13.9701578]},
{"name":"Amsterdam","coordinates":[4.8936041,52.3727598]},
{"name":"Cumilla","coordinates":[91.1810384,23.4604981]},
{"name":"Ivano-Frankivsk","coordinates":[24.7103188,48.9225224]},
{"name":"Murmansk","coordinates":[33.07497,68.970665]},
{"name":"San Pablo","coordinates":[121.3255974,14.0700502]},
{"name":"Querétaro","coordinates":[-100.3879904,20.5878372]},
{"name":"San Luis Potosi","coordinates":[-100.97639930000001,22.1516472]},
{"name":"Villahermosa","coordinates":[-92.917505,17.99571]},
{"name":"Tuxtla Gutiérrez","coordinates":[-93.115959,16.753801]},
{"name":"Mérida","coordinates":[-89.6237402,20.9670759]},
{"name":"Campeche","coordinates":[-90.536208,19.844265]},
{"name":"Acapulco","coordinates":[-99.8768321,16.8602906]},
{"name":"Chilpancingo","coordinates":[-99.5048416,17.5542149]},
{"name":"Toluca","coordinates":[-99.6569007,19.292545]},
{"name":"Oaxaca","coordinates":[-96.7253575,17.0604663]},
{"name":"Morelia","coordinates":[-101.1923818,19.7027116]},
{"name":"Idlib","coordinates":[36.6353017,35.9278306]},
{"name":"Irbid","coordinates":[35.8493023,32.5556091]},
{"name":"Cairo","coordinates":[31.243666,30.048819]},
{"name":"Kunduz","coordinates":[68.8672916,36.7175566]},
{"name":"Trujillo","coordinates":[-79.0287742,-8.1116778]},
{"name":"Piura","coordinates":[-80.6323,-5.1949018]},
{"name":"Hejing/Xejing","coordinates":[86.3823918,42.3219658]},
{"name":"Xinhe/Toqsu","coordinates":[82.609129,41.5488119]},
{"name":"Bordj El Kiffan","coordinates":[3.1908953,36.747273]},
{"name":"Chihuahua","coordinates":[-106.07497810000001,28.660574]},
{"name":"Hermosillo","coordinates":[-110.9612378,29.0894152]},
{"name":"Los Mochis","coordinates":[-108.990188,25.7928058]},
{"name":"Culiacán","coordinates":[-107.39363010000001,24.8015732]},
{"name":"León","coordinates":[-101.6825081,21.1218598]},
{"name":"Cali","coordinates":[-76.5113048,3.4319329]},
{"name":"Denpasar","coordinates":[115.21911750000001,-8.6524973]},
{"name":"Kramatorsk","coordinates":[37.5827086,48.7387442]},
{"name":"Tegal","coordinates":[109.13788330000001,-6.8673767]},
{"name":"Hulunbuir","coordinates":[119.7431228,49.2187995]},
{"name":"Arkhangelsk","coordinates":[40.537121,64.543022]},
{"name":"Khabarovsk","coordinates":[135.076935,48.481403]},
{"name":"Al Zawiyah","coordinates":[12.7264789,32.7626409]},
{"name":"Ajdabiya","coordinates":[20.2233257,30.7550035]},
{"name":"Zinder","coordinates":[8.9891659,13.8063421]},
{"name":"Tel Aviv","coordinates":[34.7805274,32.0804808]},
{"name":"Tacloban","coordinates":[125.00814020000001,11.2430274]},
{"name":"Puerto Princesa","coordinates":[118.73504140000001,9.7376025]},
{"name":"Harbin","coordinates":[126.61605840000001,45.7656666]},
{"name":"Ormoc","coordinates":[124.6075064,11.0044547]},
{"name":"Kohat","coordinates":[71.4399944,33.5967144]},
{"name":"Mahilyow","coordinates":[30.3429838,53.9090245]},
{"name":"Shenyang","coordinates":[123.4277858,41.8045293]},
{"name":"Sheikhupura","coordinates":[73.9864014,31.7085285]},
{"name":"Kasur","coordinates":[74.4478314,31.1175143]},
{"name":"Khanpur","coordinates":[70.656008,28.6477403]},
{"name":"Gojra","coordinates":[72.6859082,31.1482371]},
{"name":"Mandi Bahauddin","coordinates":[73.4914169,32.5846351]},
{"name":"Paramaribo","coordinates":[-55.1771974,5.8216198]},
{"name":"Dessie","coordinates":[39.634982,11.122604]},
{"name":"Cagayan de Oro","coordinates":[124.6415658,8.4763659]},
{"name":"Criciúma","coordinates":[-49.3695627,-28.6789941]},
{"name":"Manizales","coordinates":[-75.4992304,5.0646046]},
{"name":"Nampula","coordinates":[39.2615886,-15.1194063]},
{"name":"Sfax","coordinates":[10.7598516,34.739739]},
{"name":"Sousse","coordinates":[10.640525,35.828829]},
{"name":"Varanasi","coordinates":[83.00762920000001,25.3356491]},
{"name":"Chimbote","coordinates":[-78.5900838,-9.0783629]},
{"name":"Dammam","coordinates":[50.1039991,26.4367824]},
{"name":"Durango","coordinates":[-104.6702594,24.0244371]},
{"name":"Blida","coordinates":[2.8287985,36.4701645]},
{"name":"Bayda","coordinates":[21.7577175,32.7609529]},
{"name":"Port Sudan","coordinates":[37.211709,19.619217]},
{"name":"Fez","coordinates":[-5.0161926,34.0346534]},
{"name":"Beirut","coordinates":[35.47843,33.8959203]},
{"name":"Tatta","coordinates":[67.9240283,24.7469]},
{"name":"Nyala","coordinates":[24.8795115,12.0505098]},
{"name":"Berbera","coordinates":[45.0134007,10.4386215]},
{"name":"Bordj Bou Arreridjj","coordinates":[4.760492,36.0735398]},
{"name":"Bejaia","coordinates":[5.0647,36.750756]},
{"name":"Ciudad Victoria","coordinates":[-99.1419341,23.7439573]},
{"name":"Auckland","coordinates":[174.76555140000002,-36.8534665]},
{"name":"Ambon","coordinates":[128.178785,-3.6959434]},
{"name":"Gonaïves","coordinates":[-72.68843360000001,19.4460597]},
{"name":"Ipoh","coordinates":[101.0756408,4.5982537]},
{"name":"Peshawar","coordinates":[71.5787458,34.0123846]},
{"name":"Al-Qadarif","coordinates":[35.398832,14.040941]},
{"name":"Damietta","coordinates":[31.8213657,31.4167427]},
{"name":"Cap-Haitien","coordinates":[-72.2008068,19.7595236]},
{"name":"Port-de-Paix","coordinates":[-72.8307609,19.9399753]},
{"name":"Al Bahah","coordinates":[41.4656378,20.0137941]},
{"name":"Abha","coordinates":[42.5043596,18.2164282]},
{"name":"Haarlem","coordinates":[4.6388048,52.3885317]},
{"name":"Palu","coordinates":[119.8679974,-0.8957793]},
{"name":"Montevideo","coordinates":[-56.1913569,-34.9059039]},
{"name":"Dhamar","coordinates":[44.4000607,14.542997]},
{"name":"Matamoros","coordinates":[-97.50667580000001,25.8704735]},
{"name":"Hat Yai","coordinates":[100.4575824,7.0027648]},
{"name":"Makassar","coordinates":[119.4124282,-5.1342962]},
{"name":"Dire Dawa","coordinates":[41.85572,9.5944718]},
{"name":"Mek'elē","coordinates":[39.4757557,13.5011216]},
{"name":"Rabat","coordinates":[-6.834543,34.022405]},
{"name":"Al-Zaqaziq‎","coordinates":[31.5035127,30.5853431]},
{"name":"Damanhur","coordinates":[30.4710625,31.0374982]},
{"name":"Qena","coordinates":[32.7182974,26.1615051]},
{"name":"6th of October","coordinates":[30.9409205,29.9723458]},
{"name":"Shibin Al-Kom","coordinates":[31.0097923,30.5545106]},
{"name":"Dehradun","coordinates":[78.0436813,30.3255646]},
{"name":"Algiers","coordinates":[3.060065,36.775348]},
{"name":"Annaba","coordinates":[7.7549272,36.8982165]},
{"name":"Batna","coordinates":[6.1767453,35.554404]},
{"name":"Chlef","coordinates":[1.331499,36.164592]},
{"name":"Djelfa","coordinates":[3.254037,34.671359]},
{"name":"Sidi Bel Abbes","coordinates":[-0.634632,35.191069]},
{"name":"Biskra","coordinates":[5.7286878,34.8508508]},
{"name":"Tebessa","coordinates":[8.1198984,35.4044483]},
{"name":"Tiaret","coordinates":[1.3194687,35.3661448]},
{"name":"Skikda","coordinates":[6.907485,36.879882]},
{"name":"Bechar","coordinates":[-2.2171276,31.6170177]},
{"name":"Souk Ahras","coordinates":[7.9515466,36.284832]},
{"name":"M'Sila","coordinates":[4.5371552,35.7087553]},
{"name":"Popayán","coordinates":[-76.6060618,2.4418517]},
{"name":"Montreal","coordinates":[-73.6103642,45.4972159]},
{"name":"Guelma","coordinates":[7.430647,36.465084]},
{"name":"Barika","coordinates":[5.3705996,35.3845042]},
{"name":"Hebron","coordinates":[35.0944873,31.528902]},
{"name":"Khan Yunis","coordinates":[34.3025277,31.3457612]},
{"name":"Kassala","coordinates":[36.3771099,15.4521163]},
{"name":"Wad Madanī","coordinates":[33.5309561,14.3965781]},
{"name":"Al-Fashir","coordinates":[25.3555559,13.6238244]},
{"name":"Ad Da'ein","coordinates":[26.1310939,11.4611731]},
{"name":"Ad-Damazin","coordinates":[34.3656298,11.8073636]},
{"name":"Geneina","coordinates":[22.4452278,13.4435]},
{"name":"Kota Kinabalu","coordinates":[116.0728988,5.9780066]},
{"name":"Kanazawa","coordinates":[136.6568822,36.561627]},
{"name":"La Ceiba","coordinates":[-86.7917749,15.7833743]},
{"name":"Jiamusi","coordinates":[130.3734556,46.8087794]},
{"name":"Gulu","coordinates":[32.3044273,2.770239]},
{"name":"Bintulu","coordinates":[113.04728030000001,3.1874261]},
{"name":"Fuenlabrada","coordinates":[-3.7923422,40.282476]},
{"name":"Alcorcón","coordinates":[-3.8284295,40.3492998]},
{"name":"Móstoles","coordinates":[-3.8649214,40.3238525]},
{"name":"Leganés","coordinates":[-3.76527,40.3281942]},
{"name":"Multan","coordinates":[71.4724978,30.1979793]},
{"name":"Mirzo Ulugbek district","coordinates":[69.3499732,41.3331017]},
{"name":"Chilanzar District","coordinates":[69.219167,41.279722]},
{"name":"Yunusabad district","coordinates":[69.2989687,41.3514862]},
{"name":"Olmazor district","coordinates":[69.2266019,41.362149]},
{"name":"Cheongju-si","coordinates":[127.4891742,36.6421169]},
{"name":"Cologne Government Region","coordinates":[6.9580206,50.937588]},
{"name":"Osan","coordinates":[127.07746250000001,37.1499376]},
{"name":"Herat","coordinates":[62.2164003,34.3508273]},
{"name":"Higashihiroshima","coordinates":[132.741552,34.42683]},
{"name":"Ciudad Guayana","coordinates":[-62.6896622,8.3223763]},
{"name":"Ciudad Bolívar","coordinates":[-63.551078,8.1080955]},
{"name":"Porto Alegre","coordinates":[-51.2303767,-30.0324999]},
{"name":"Sucre","coordinates":[-65.2594306,-19.0477251]},
{"name":"Cochabamba","coordinates":[-66.1569588,-17.3935853]},
{"name":"Kragujevac","coordinates":[20.9140472,44.0082482]},
{"name":"Wuhai","coordinates":[106.8186319,39.6733094]},
{"name":"Golmud","coordinates":[94.910245,36.3956174]},
{"name":"Riyadh","coordinates":[46.7150648,24.6319692]},
{"name":"Naypyidaw","coordinates":[96.1344976,19.7540045]},
{"name":"Jaipur","coordinates":[75.820349,26.916194]},
{"name":"Thanjavur","coordinates":[79.5,10.5]},
{"name":"Nasīrābād District","coordinates":[68.166667,28.333333]},
{"name":"Panjgūr District","coordinates":[64.25,26.666667]},
{"name":"Awārān District","coordinates":[65.5,26.166667]},
{"name":"Kalāt District","coordinates":[66.75,29.333333]},
{"name":"Bārkhān District","coordinates":[69.666667,29.5]},
{"name":"Bolān District","coordinates":[67.833333,29.166667]},
{"name":"Khārān District","coordinates":[64.5,28]},
{"name":"Islamabad","coordinates":[73.0651511,33.6938118]},
{"name":"Jāfarābād District","coordinates":[68.166667,28.416667]},
{"name":"Boa Vista","coordinates":[-60.6719582,2.8208478]},
{"name":"Dagupan","coordinates":[120.33756880000001,16.0424848]},
{"name":"18th Arrondissement","coordinates":[2.3464668,48.8900117]},
{"name":"Manado","coordinates":[124.8408708,1.4900578]},
{"name":"Jessore","coordinates":[89.20953440000001,23.1665214]},
{"name":"Constanța","coordinates":[28.6319765,44.1717856]},
{"name":"Taloqan","coordinates":[69.535335,36.7358826]},
{"name":"Rondonopolis","coordinates":[-54.6397099,-16.4603533]},
{"name":"Campo Grande","coordinates":[-54.6162947,-20.4640173]},
{"name":"Yamoussoukro","coordinates":[-5.273263,6.809107]},
{"name":"Ciudad del Este","coordinates":[-54.6168645,-25.5169015]},
{"name":"Surigao City","coordinates":[125.4929273,9.7916433]},
{"name":"Bogor","coordinates":[106.7972421,-6.5962986]},
{"name":"Chiclayo","coordinates":[-79.8408308,-6.766417]},
{"name":"Caxias","coordinates":[-43.353664,-4.8654201]},
{"name":"Timon","coordinates":[-42.8449518,-5.1023325]},
{"name":"Teresina","coordinates":[-42.809588,-5.0896403]},
{"name":"Petrolina","coordinates":[-40.4968875,-9.3817334]},
{"name":"Juazeiro","coordinates":[-40.5068201,-9.4336959]},
{"name":"Melaka City","coordinates":[102.255926,2.1908178]},
{"name":"Rabak","coordinates":[32.7398062,13.1844655]},
{"name":"Khulna","coordinates":[89.5545537,22.8207067]},
{"name":"Tapachula","coordinates":[-92.2649713,14.9099409]},
{"name":"Davao","coordinates":[125.6084143,7.0645241]},
{"name":"Biratnagar","coordinates":[87.281617,26.4623007]},
{"name":"Yaounde","coordinates":[11.5213344,3.8689867]},
{"name":"Nag Hammadi","coordinates":[32.2416339,26.0489911]},
{"name":"Rio Branco","coordinates":[-67.8220778,-9.9765362]},
{"name":"Saga","coordinates":[130.3008378,33.2639134]},
{"name":"Maracay","coordinates":[-67.6017245,10.2513662]},
{"name":"Maturin","coordinates":[-63.1799873,9.7452286]},
{"name":"Cumana","coordinates":[-64.1630154,10.4494466]},
{"name":"Toamasina","coordinates":[49.4069924,-18.1573071]},
{"name":"Stary Oskol","coordinates":[37.833202,51.298038]},
{"name":"Dnipro","coordinates":[35.0417711,48.4680221]},
{"name":"Stepok","coordinates":[35.30731,46.30119]},
{"name":"Chittagong","coordinates":[91.8412863,22.3307998]},
{"name":"Howrah","coordinates":[88.323139,22.5882216]},
{"name":"Macapa","coordinates":[-51.0693238,0.0460699]},
{"name":"Jaboatão dos Guararapes","coordinates":[-34.9468716,-8.1752476]},
{"name":"Palmas","coordinates":[-48.3337793,-10.1835604]},
{"name":"Anju","coordinates":[125.6611381,39.6173686]},
{"name":"Belagavi","coordinates":[74.50693430000001,15.8572666]},
{"name":"Medellín","coordinates":[-75.573553,6.2443382]},
{"name":"Balakovo","coordinates":[47.819141,52.01812]},
{"name":"Hail","coordinates":[41.6985992,27.5208716]},
{"name":"Al Kufa","coordinates":[44.4031125,32.03444]},
{"name":"Najaf","coordinates":[44.3299926,32.0010227]},
{"name":"Pak Kret","coordinates":[100.4976044,13.9121482]},
{"name":"Busan","coordinates":[129.07523650000002,35.1799528]},
{"name":"Gwangju","coordinates":[126.8513006,35.1601443]},
{"name":"Goyang","coordinates":[126.8319452,37.6581862]},
{"name":"Jeonju","coordinates":[127.1480657,35.8242715]},
{"name":"Pohang-si","coordinates":[129.3429384,36.0189315]},
{"name":"Gimhae","coordinates":[128.8908228,35.2310947]},
{"name":"Uijeongbu-si","coordinates":[127.033682,37.738098]},
{"name":"Jinju-si","coordinates":[128.1079953,35.1803459]},
{"name":"Gumi-si","coordinates":[128.34446920000002,36.1195513]},
{"name":"Iksan-si","coordinates":[126.95780250000001,35.9479291]},
{"name":"Suncheon-si","coordinates":[127.48729920000001,34.9505457]},
{"name":"Gunsan-si","coordinates":[126.7369036,35.9679984]},
{"name":"Jeju","coordinates":[126.5130589,33.4930566]},
{"name":"Yeosu-si","coordinates":[127.659859,34.7546257]},
{"name":"Gunpo-si","coordinates":[126.9349025,37.3615229]},
{"name":"Gyeongsan-si","coordinates":[128.741329,35.825122]},
{"name":"Chuncheon-si","coordinates":[127.72976410000001,37.8810569]},
{"name":"Yangsan","coordinates":[129.03705820000002,35.3349979]},
{"name":"Geoje-si","coordinates":[128.621207,34.8804677]},
{"name":"Anseong-si","coordinates":[127.279971,37.007773]},
{"name":"Icheon-si","coordinates":[127.4429132,37.2808823]},
{"name":"Uiwang","coordinates":[126.9689861,37.3449082]},
{"name":"Seosan-si","coordinates":[126.450317,36.784499]},
{"name":"Gwangyang-si","coordinates":[127.695888,34.940697]},
{"name":"Sejong","coordinates":[127.28709490000001,36.481668]},
{"name":"Balashikha","coordinates":[37.9646488,55.8036225]},
{"name":"Nonthaburi","coordinates":[100.5133388,13.8608545]},
{"name":"Mytishchi","coordinates":[37.7339358,55.9094928]},
{"name":"Podolsk","coordinates":[37.5453056,55.4308841]},
{"name":"Caruaru","coordinates":[-35.9722852,-8.2829702]},
{"name":"Ho Chi Minh City","coordinates":[106.7017555,10.7758439]},
{"name":"Tuy Hòa","coordinates":[109.2993584,13.0877226]},
{"name":"Da Nang","coordinates":[108.2119396,16.0679814]},
{"name":"Vung Tau","coordinates":[107.0765028,10.3486485]},
{"name":"Thu Dau Mot City","coordinates":[106.6537483,10.9808435]},
{"name":"Haiphong","coordinates":[106.6749591,20.858864]},
{"name":"Pasir Mas","coordinates":[102.1399444,6.0494592]},
{"name":"Kuala Terengganu","coordinates":[103.138313,5.3297015]},
{"name":"Kuala Besut","coordinates":[102.55610960000001,5.8283726]},
{"name":"Donggongon","coordinates":[116.0899557,5.9048177]},
{"name":"Jiāngmén","coordinates":[113.079047,22.5766294]},
{"name":"Sa Dec","coordinates":[105.7588147,10.2943716]},
{"name":"Chongzuo","coordinates":[107.3527971,22.4041727]},
{"name":"Belém","coordinates":[-48.4682453,-1.45056]},
{"name":"Tagum","coordinates":[125.80957710000001,7.4468904]},
{"name":"Bogra","coordinates":[89.3729529,24.8480859]},
{"name":"Rajshahi","coordinates":[88.5921038,24.3715513]},
{"name":"Kushiro","coordinates":[144.38204910000002,42.9849503]},
{"name":"Craiova","coordinates":[23.7965614,44.3190159]},
{"name":"Kemerovo","coordinates":[86.087234,55.355125]},
{"name":"Padua","coordinates":[11.8734455,45.4077172]},
{"name":"Mataram","coordinates":[116.10685,-8.5837726]},
{"name":"Salé","coordinates":[-6.814017,34.044889]},
{"name":"Ulsan","coordinates":[129.252024,35.5487857]},
{"name":"Yangju-si","coordinates":[127.046318,37.7852633]},
{"name":"Pocheon-si","coordinates":[127.2007295,37.8948267]},
{"name":"Gangneung-si","coordinates":[128.8759523,37.7525313]},
{"name":"Seodaemun-gu","coordinates":[126.9367861,37.5790747]},
{"name":"Guri-si","coordinates":[127.12979170000001,37.5941315]},
{"name":"Dobong-gu","coordinates":[127.0305964,37.6664869]},
{"name":"Hanam-si","coordinates":[127.21492920000001,37.5392174]},
{"name":"Wonju-si","coordinates":[127.9197603,37.3420996]},
{"name":"Yeonsu-gu","coordinates":[126.6626832,37.4191375]},
{"name":"Gwangju-si","coordinates":[127.255189,37.4290844]},
{"name":"Chungju-si","coordinates":[127.92598910000001,36.9907334]},
{"name":"Hwaseong-si","coordinates":[126.8312632,37.1994653]},
{"name":"Pyeongtaek-si","coordinates":[127.1127168,36.9924966]},
{"name":"Yongin-si","coordinates":[127.17855720000001,37.2405741]},
{"name":"Asan-si","coordinates":[127.00274320000001,36.7895644]},
{"name":"Cheonan-si","coordinates":[127.1140654,36.8150283]},
{"name":"Santa Cruz de la Sierra","coordinates":[-63.182206,-17.7836009]},
{"name":"Chapeco","coordinates":[-52.6188987,-27.1011804]},
{"name":"Ponta Grossa","coordinates":[-50.1601812,-25.0891685]},
{"name":"Ōita","coordinates":[131.6053072,33.240019]},
{"name":"Zhaotong","coordinates":[103.7144348,27.3376718]},
{"name":"Wroclaw","coordinates":[17.0326689,51.1089776]},
{"name":"Iwata","coordinates":[137.851285,34.706481]},
{"name":"Tétouan","coordinates":[-5.3742776,35.570175]},
{"name":"Seremban","coordinates":[101.9344913,2.7247562]},
{"name":"Yakeshi/Yaysi","coordinates":[120.7283079,49.285437]},
{"name":"Izmir","coordinates":[27.144474,38.4153421]},
{"name":"Antalya","coordinates":[30.6954846,36.9009641]},
{"name":"Basra","coordinates":[47.8090981,30.4952367]},
{"name":"Hrodna","coordinates":[23.8342648,53.6834599]},
{"name":"Chernivtsi","coordinates":[25.9376532,48.2864702]},
{"name":"Warsaw","coordinates":[21.0067265,52.2319237]},
{"name":"Naples","coordinates":[14.2487826,40.8359336]},
{"name":"Fukang","coordinates":[87.95336970000001,44.1550685]},
{"name":"Jiayuguan","coordinates":[98.28853880000001,39.7722294]},
{"name":"Kindu","coordinates":[25.9184499,-2.9493766]},
{"name":"Kolwezi","coordinates":[25.4669918,-10.7169952]},
{"name":"Kostanay","coordinates":[63.632607,53.2146604]},
{"name":"Aral/Ala'er","coordinates":[81.2770789,40.5421865]},
{"name":"Baoshan","coordinates":[99.1654168,25.1180731]},
{"name":"Jiangcheng","coordinates":[101.8615883,22.5868926]},
{"name":"Dali","coordinates":[100.2449114,25.6023916]},
{"name":"Jinghong","coordinates":[100.77072740000001,22.0025515]},
{"name":"Lijiang","coordinates":[100.2356332,26.8740866]},
{"name":"Longling","coordinates":[98.6915587,24.5954803]},
{"name":"Mang","coordinates":[98.5874194,24.4369622]},
{"name":"Wenshan","coordinates":[104.23086450000001,23.3893484]},
{"name":"Menghai","coordinates":[100.4511886,21.9598828]},
{"name":"Qujing","coordinates":[103.79654,25.4902717]},
{"name":"Matsumoto","coordinates":[137.9687141,36.2382047]},
{"name":"Morioka","coordinates":[141.15453970000002,39.7021331]},
{"name":"Guatemala City","coordinates":[-90.5132239,14.6417889]},
{"name":"Veracruz","coordinates":[-96.1385688,19.2002198]},
{"name":"District 1","coordinates":[106.70076080000001,10.7851001]},
{"name":"London","coordinates":[-81.246643,42.988576]},
{"name":"Phra Pradaeng","coordinates":[100.5344867,13.6605541]},
{"name":"Oviedo","coordinates":[-5.8448989,43.3605977]},
{"name":"Ilesa","coordinates":[4.733333,7.616667]},
{"name":"Aba","coordinates":[7.364349,5.112735]},
{"name":"Jixi","coordinates":[130.9619259,45.2928513]},
{"name":"Tanjung Pinang","coordinates":[104.446094,0.9236915]},
{"name":"Gaza","coordinates":[34.4607415,31.5077213]},
{"name":"Batam City","coordinates":[104.0378246,1.1061034]},
{"name":"Gouvernorat of Sfax","coordinates":[10.5178537,34.8433201]},
{"name":"Marrakesh","coordinates":[-7.9891608,31.6258257]},
{"name":"Patna","coordinates":[85.1235252,25.6093239]},
{"name":"16th Arrondissement","coordinates":[2.2757648,48.8631709]},
{"name":"Samarinda","coordinates":[117.1393089,-0.5017804]},
{"name":"Mitaka","coordinates":[139.572916,35.685227]},
{"name":"Wuzhou","coordinates":[111.2971834,23.4782947]},
{"name":"Nanning","coordinates":[108.3027254,22.832567]},
{"name":"Bratislava","coordinates":[17.1093063,48.1516988]},
{"name":"Košice","coordinates":[21.2496774,48.7172272]},
{"name":"Rason","coordinates":[130.31132960000002,42.2497316]},
{"name":"Singapore","coordinates":[103.8520359,1.2904753]},
{"name":"Kyoto","coordinates":[135.7634074,35.0231321]},
{"name":"Bontang","coordinates":[117.471708,0.1236548]},
{"name":"Kawagoe","coordinates":[139.48569270000002,35.9251145]},
{"name":"Nagpur","coordinates":[79.0820556,21.1498134]},
{"name":"Kuwait City","coordinates":[47.9735629,29.3797091]},
{"name":"Pontianak","coordinates":[109.3447488,-0.0226903]},
{"name":"Banjarmasin","coordinates":[114.5925828,-3.3187496]},
{"name":"Bandar Lampung","coordinates":[105.2643742,-5.4460713]},
{"name":"Padang Sidempuan","coordinates":[99.2727172,1.372696]},
{"name":"Ternate","coordinates":[127.3831973,0.7852331]},
{"name":"Kuki","coordinates":[139.66670810000002,36.0618828]},
{"name":"Kishiwada","coordinates":[135.385237,34.4644]},
{"name":"Izumi","coordinates":[135.474789,34.43108]},
{"name":"Yao","coordinates":[135.605845,34.626275]},
{"name":"Toyonaka","coordinates":[135.4737093,34.7862025]},
{"name":"Suita","coordinates":[135.51735,34.764884]},
{"name":"Higashiosaka","coordinates":[135.597728,34.678147]},
{"name":"Neyagawa","coordinates":[135.633907,34.76751]},
{"name":"Hirakata","coordinates":[135.659225,34.818215]},
{"name":"Ibaraki","coordinates":[135.55395090000002,34.834009]},
{"name":"Takatsuki","coordinates":[135.6012398,34.8812905]},
{"name":"Nizhnekamsk","coordinates":[51.8160376,55.6412879]},
{"name":"Kediri","coordinates":[112.0046051,-7.8111057]},
{"name":"Jalandhar","coordinates":[75.576889,31.3323762]},
{"name":"Phnom Penh","coordinates":[104.92244260000001,11.568271]},
{"name":"Jamshedpur","coordinates":[86.2029579,22.8015194]},
{"name":"Guwahati","coordinates":[91.753943,26.1805978]},
{"name":"As Suwayda","coordinates":[36.5687496,32.7093878]},
{"name":"Agra","coordinates":[78.0098161,27.1752554]},
{"name":"Silchar","coordinates":[92.797148,24.829588]},
{"name":"Naha","coordinates":[127.692221,26.213854]},
{"name":"Bharatpur","coordinates":[77.49869620000001,27.2154447]},
{"name":"Gwalior","coordinates":[78.1573628,26.2037247]},
{"name":"Mirzapur","coordinates":[82.5689952,25.1461346]},
{"name":"Nagasaki","coordinates":[129.8781002,32.7501611]},
{"name":"Nishio","coordinates":[137.069626,34.822498]},
{"name":"Anjo","coordinates":[137.075563,34.947764]},
{"name":"Nagoya","coordinates":[136.90448,35.15792]},
{"name":"Kariya","coordinates":[137.002791,34.974678]},
{"name":"Toyohashi","coordinates":[137.391461,34.769123]},
{"name":"Okazaki","coordinates":[137.260842,34.950974]},
{"name":"Toyokawa","coordinates":[137.378586,34.827644]},
{"name":"Toyota","coordinates":[137.301478,35.15195]},
{"name":"Ichinomiya","coordinates":[136.806915,35.304878]},
{"name":"Kasugai","coordinates":[137.007459,35.273804]},
{"name":"Khammam","coordinates":[80.1500326,17.2465351]},
{"name":"Ar Raqqah","coordinates":[39.0089212,35.949678]},
{"name":"Davanagere","coordinates":[75.92063610000001,14.4661266]},
{"name":"Guntur","coordinates":[80.4541588,16.2915189]},
{"name":"Meerut","coordinates":[77.7061915,28.9963296]},
{"name":"Homs","coordinates":[36.7166667,34.7333334]},
{"name":"Hama","coordinates":[36.7496276,35.1343368]},
{"name":"Al-Hasakah","coordinates":[40.7469948,36.5013738]},
{"name":"Caloocan","coordinates":[120.984107,14.6571285]},
{"name":"Deir ez-Zor","coordinates":[40.1499999,35.3333335]},
{"name":"Takamatsu","coordinates":[134.04653380000002,34.3425592]},
{"name":"Kōchi","coordinates":[133.5394221,33.5680384]},
{"name":"Maebashi","coordinates":[139.0632826,36.3893418]},
{"name":"Siliguri","coordinates":[88.4309916,26.7164127]},
{"name":"Gaza Strip","coordinates":[34.3779285,31.4331663]},
{"name":"Kolhapur","coordinates":[74.2405329,16.7028412]},
{"name":"Halabja","coordinates":[45.9873683,35.1792062]},
{"name":"Erbil","coordinates":[44.0094652,36.1911624]},
{"name":"Kut","coordinates":[45.8296334,32.5010274]},
{"name":"Christchurch","coordinates":[172.63664550000001,-43.530955]},
{"name":"João Pessoa","coordinates":[-34.882028,-7.1215981]},
{"name":"Kurnool","coordinates":[78.0425373,15.8309251]},
{"name":"Dewas","coordinates":[76.054867,22.96363]},
{"name":"Saltillo","coordinates":[-100.99450680000001,25.4192971]},
{"name":"Pétionville","coordinates":[-72.28602090000001,18.5132181]},
{"name":"Rangpur","coordinates":[89.241459,25.7569808]},
{"name":"Navi Mumbai","coordinates":[73.0198537,19.0308262]},
{"name":"Chofu","coordinates":[139.554815,35.660036]},
{"name":"Fuchū","coordinates":[139.47344510000002,35.6611119]},
{"name":"Yunfu","coordinates":[112.03962460000001,22.9173703]},
{"name":"Hachiōji","coordinates":[139.283071,35.660175]},
{"name":"Hino","coordinates":[139.41470510000002,35.6610715]},
{"name":"Nakano","coordinates":[139.664468,35.718123]},
{"name":"Nerima","coordinates":[139.638735,35.74836]},
{"name":"Yokkaichi","coordinates":[136.624845,34.9648428]},
{"name":"Machida","coordinates":[139.442839,35.564193]},
{"name":"Imabari","coordinates":[132.9976758,34.0658182]},
{"name":"Fushun","coordinates":[104.9719324,29.184244]},
{"name":"Hengyang","coordinates":[112.605859,26.9018019]},
{"name":"Kagoshima","coordinates":[130.527873,31.572494]},
{"name":"Kumamoto","coordinates":[130.7333361,32.7833323]},
{"name":"Lhokseumawe","coordinates":[97.1480544,5.1789659]},
{"name":"Recife","coordinates":[-34.8781517,-8.0641931]},
{"name":"Toshima","coordinates":[139.714222,35.736156]},
{"name":"Bacolod City","coordinates":[122.95137860000001,10.6762836]},
{"name":"Sulaymaniyah","coordinates":[45.4425963,35.5570501]},
{"name":"Bunkyo","coordinates":[139.744732,35.71881]},
{"name":"Hubballi","coordinates":[75.1379848,15.3518378]},
{"name":"Niiza","coordinates":[139.56520310000002,35.7934426]},
{"name":"Ageo","coordinates":[139.5930504,35.9774082]},
{"name":"Bogota","coordinates":[-74.0761028,4.5980772]},
{"name":"Tawau","coordinates":[117.8929619,4.2635238]},
{"name":"Ulan Hot","coordinates":[122.06984530000001,46.070838]},
{"name":"Tottori","coordinates":[134.2349289,35.5014044]},
{"name":"Ube","coordinates":[131.2468368,33.9516458]},
{"name":"Yamaguchi","coordinates":[131.4737077,34.1781317]},
{"name":"Shimonoseki","coordinates":[130.94154550000002,33.9577116]},
{"name":"Kuantan","coordinates":[103.32922350000001,3.8196701]},
{"name":"Ueda","coordinates":[138.249364,36.410855]},
{"name":"Nagano","coordinates":[138.099959,36.643991]},
{"name":"Hezhou","coordinates":[111.5435723,24.415373]},
{"name":"Okayama","coordinates":[133.924663,34.711796]},
{"name":"Ulyanovsk","coordinates":[48.3642771,54.3107593]},
{"name":"Itabashi","coordinates":[139.681209,35.774143]},
{"name":"Suginami","coordinates":[139.6362876,35.6994929]},
{"name":"Sumida","coordinates":[139.805017,35.700429]},
{"name":"Edogawa","coordinates":[139.871091,35.678278]},
{"name":"Katsushika","coordinates":[139.863816,35.751733]},
{"name":"Takarazuka","coordinates":[135.3257734,34.8659057]},
{"name":"Kawanishi","coordinates":[135.4147005,34.8699135]},
{"name":"Kakogawa","coordinates":[134.8498955,34.786771]},
{"name":"Amagasaki","coordinates":[135.412989,34.7288995]},
{"name":"Nishinomiya","coordinates":[135.3166017,34.773632]},
{"name":"Akashi","coordinates":[134.94769250000002,34.6832635]},
{"name":"Himeji","coordinates":[134.6854525,34.8160532]},
{"name":"Kobe","coordinates":[135.1943764,34.6932379]},
{"name":"Itami","coordinates":[135.407994,34.786159]},
{"name":"Koto","coordinates":[139.81279,35.649154]},
{"name":"Kita","coordinates":[139.736687,35.755838]},
{"name":"Patan","coordinates":[85.326538,27.672903]},
{"name":"Aktau","coordinates":[51.157997,43.652058]},
{"name":"Douala","coordinates":[9.7061981,4.0429674]},
{"name":"Haldia","coordinates":[88.0632655,22.028124]},
{"name":"Chongqing","coordinates":[106.5492822,29.5585712]},
{"name":"Iwaki","coordinates":[140.8876338,37.0504227]},
{"name":"Fukushima","coordinates":[140.47458070000002,37.760777]},
{"name":"Koriyama","coordinates":[140.333381,37.404937]},
{"name":"Hirosaki","coordinates":[140.46403890000002,40.6030543]},
{"name":"Hachinohe","coordinates":[141.4882959,40.5122388]},
{"name":"Aomori","coordinates":[140.7473584,40.8228549]},
{"name":"Mito","coordinates":[140.47163740000002,36.3651291]},
{"name":"Pematang Siantar","coordinates":[99.0653646,2.9588631]},
{"name":"Beer Sheva","coordinates":[34.7905787,31.2525238]},
{"name":"Cardiff","coordinates":[-3.1791934,51.4816546]},
{"name":"Miyazaki","coordinates":[131.4393171,31.9035804]},
{"name":"Miyakonojo","coordinates":[131.06470050000001,31.782369]},
{"name":"Cheboksary","coordinates":[47.2449597,56.1307195]},
{"name":"Sendai","coordinates":[140.8691498,38.2677554]},
{"name":"Akita","coordinates":[140.1018593,39.719704]},
{"name":"Yamagata","coordinates":[140.3400205,38.2553393]},
{"name":"Joetsu","coordinates":[138.2359501,37.1478816]},
{"name":"Chuo Ward","coordinates":[139.04792,37.887675]},
{"name":"Niigata","coordinates":[139.0365006,37.9160769]},
{"name":"Nishi Ward","coordinates":[138.948179,37.839803]},
{"name":"Nagaoka","coordinates":[138.8512723,37.4463918]},
{"name":"Hitachinaka","coordinates":[140.5346906,36.3965834]},
{"name":"Xichang","coordinates":[102.25471870000001,27.8762825]},
{"name":"Fukui","coordinates":[136.22605420000002,36.061751]},
{"name":"Toyama","coordinates":[137.21362150000002,36.6957569]},
{"name":"Takaoka","coordinates":[137.0187306,36.7362147]},
{"name":"Hamamatsu","coordinates":[137.7259431,34.7109786]},
{"name":"Fuji","coordinates":[138.67335,35.156633]},
{"name":"Maoming","coordinates":[110.9196315,21.6656562]},
{"name":"Al-Minya","coordinates":[30.757578,28.096828]},
{"name":"Idfu","coordinates":[32.8747219,24.980278]},
{"name":"Tsukuba","coordinates":[140.0765098,36.0833877]},
{"name":"Faiyum","coordinates":[30.8398896,29.3073841]},
{"name":"Beni Suef","coordinates":[31.0982562,29.0729812]},
{"name":"Shubra al Khayma","coordinates":[31.242222,30.128611]},
{"name":"Al Ismailiya","coordinates":[32.2770825,30.6043775]},
{"name":"10th of Ramadan City","coordinates":[31.749342,30.2900096]},
{"name":"Helwan","coordinates":[31.333333,29.8500001]},
{"name":"Hisar","coordinates":[75.72923030000001,29.1562688]},
{"name":"Kodaira","coordinates":[139.476606,35.72522]},
{"name":"Shanghai","coordinates":[121.4888922,31.2253441]},
{"name":"Punto Fijo","coordinates":[-70.2015372,11.6925865]},
{"name":"Sambalpur","coordinates":[83.97615110000001,21.4705391]},
{"name":"Sorong","coordinates":[131.2544805,-0.8634105]},
{"name":"Bir El Djir","coordinates":[-0.5675118,35.719874]},
{"name":"Pardis","coordinates":[51.8172149,35.7371227]},
{"name":"Sanya","coordinates":[109.5034392,18.2534658]},
{"name":"Sharjah","coordinates":[55.3895321,25.3585432]},
{"name":"Palangka Raya","coordinates":[113.91646530000001,-2.2074094]},
{"name":"Tokorozawa","coordinates":[139.46874780000002,35.7994271]},
{"name":"Kasukabe","coordinates":[139.75230330000002,35.9750577]},
{"name":"Soka","coordinates":[139.805481,35.825336]},
{"name":"Koshigaya","coordinates":[139.79091160000002,35.8908991]},
{"name":"Kawaguchi","coordinates":[139.7241054,35.8078228]},
{"name":"Nimeguen","coordinates":[5.8634696,51.8427385]},
{"name":"Sikar","coordinates":[75.13955030000001,27.6091864]},
{"name":"Malolos","coordinates":[120.8113694,14.843759]},
{"name":"Nacala","coordinates":[40.6869931,-14.5564782]},
{"name":"Eugene","coordinates":[-123.0950506,44.0505054]},
{"name":"Caracas","coordinates":[-66.9146017,10.506098]},
{"name":"11th Arrondissement","coordinates":[2.379703,48.858416]},
{"name":"19th Arrondissement","coordinates":[2.38436,48.889343]},
{"name":"20th Arrondissement","coordinates":[2.398929,48.865042]},
{"name":"Batangas City","coordinates":[121.057754,13.7561219]},
{"name":"Can Tho","coordinates":[105.7809605,10.0375517]},
{"name":"Seyhan","coordinates":[35.3185619,36.9906945]},
{"name":"San Fernando","coordinates":[120.69380380000001,15.0283014]},
{"name":"Bristol","coordinates":[-2.5972985,51.4538022]},
{"name":"Xalapa","coordinates":[-96.92387930000001,19.5274085]},
{"name":"Pagadian","coordinates":[123.43658160000001,7.8249717]},
{"name":"Zamboanga City","coordinates":[122.07636950000001,6.9046004]},
{"name":"Gaziosmanpaşa","coordinates":[28.9355854,41.0631527]},
{"name":"Sancaktepe","coordinates":[29.2123325,41.0104897]},
{"name":"Roxas City","coordinates":[122.75005770000001,11.5895171]},
{"name":"Butuan","coordinates":[125.54324880000001,8.9478218]},
{"name":"Mira-Bhayander","coordinates":[72.8618456,19.2962873]},
{"name":"Sandakan","coordinates":[118.1158919,5.8391337]},
{"name":"Chengxian","coordinates":[105.7269036,33.7413597]},
{"name":"Karnal","coordinates":[76.9896254,29.6803266]},
{"name":"Najran","coordinates":[44.2246817,17.5439809]},
{"name":"Unaizah","coordinates":[43.994,26.084]},
{"name":"Hafar Al-Batin","coordinates":[45.9627527,28.4328084]},
{"name":"Al-Kharj","coordinates":[47.305,24.148333]},
{"name":"Khamis Mushait","coordinates":[42.733333,18.3]},
{"name":"Tanchon","coordinates":[128.90386460000002,40.4590505]},
{"name":"Tadotsu","coordinates":[133.7601435,34.2716875]},
{"name":"Marugame","coordinates":[133.7982421,34.2888128]},
{"name":"Sakaide","coordinates":[133.8698532,34.3082086]},
{"name":"Taito","coordinates":[139.790859,35.71745]},
{"name":"Abidjan","coordinates":[-4.016107,5.320357]},
{"name":"Takasaki","coordinates":[139.0032758,36.3220984]},
{"name":"Ota","coordinates":[139.37542330000002,36.2911561]},
{"name":"Isesaki","coordinates":[139.19680830000001,36.3111734]},
{"name":"Damascus","coordinates":[36.3095814,33.5130695]},
{"name":"Sumgayit","coordinates":[49.6697285,40.5961055]},
{"name":"Tochigi","coordinates":[139.73414350000002,36.3824655]},
{"name":"Oyama","coordinates":[139.800148,36.3147373]},
{"name":"Chuo","coordinates":[139.775565,35.666255]},
{"name":"Arakawa","coordinates":[139.78131,35.737529]},
{"name":"Ota","coordinates":[139.715843,35.561206]},
{"name":"Adachi","coordinates":[139.795319,35.783703]},
{"name":"Minato","coordinates":[139.7400553,35.6432274]},
{"name":"Setagaya","coordinates":[139.65627,35.646096]},
{"name":"Shinagawa","coordinates":[139.73891,35.599252]},
{"name":"Foggia","coordinates":[15.5430624,41.4623447]},
{"name":"Jalgaon","coordinates":[75.5683795,20.9968453]},
{"name":"Hyderabad","coordinates":[68.3750376,25.3801017]},
{"name":"Jind","coordinates":[76.31794880000001,29.3140427]},
{"name":"Taipei","coordinates":[121.56367960000001,25.0375198]},
{"name":"Jhansi","coordinates":[78.5800085,25.4502464]},
{"name":"Vladikavkaz","coordinates":[44.68211,43.024593]},
{"name":"Zliten","coordinates":[14.56564,32.467562]},
{"name":"Valencia","coordinates":[-68.003553,10.1828036]},
{"name":"Kanpur","coordinates":[80.32175880000001,26.4609135]},
{"name":"Nanded-Waghala","coordinates":[77.311013,19.169335]},
{"name":"Moradabad","coordinates":[78.7732864,28.8334982]},
{"name":"Amroha","coordinates":[78.4707309,28.90662]},
{"name":"Hitachi","coordinates":[140.65106120000002,36.5989524]},
{"name":"Al Hudaydah","coordinates":[42.9544872,14.7978677]},
{"name":"A Coruña","coordinates":[-8.3958768,43.3712091]},
{"name":"Province of Piura","coordinates":[-80.583333,-5.5]},
{"name":"Province of Sullana","coordinates":[-80.666667,-4.5]},
{"name":"Province of Morropón","coordinates":[-80,-5.25]},
{"name":"Mufulira","coordinates":[28.2408844,-12.5512171]},
{"name":"Panama City","coordinates":[-79.5341802,8.9714493]},
{"name":"Magnitogorsk","coordinates":[58.983136,53.4242184]},
{"name":"Madurai","coordinates":[78.1140983,9.9261153]},
{"name":"Zhongli","coordinates":[121.224926,24.9653531]},
{"name":"Guanare","coordinates":[-69.74125930000001,9.0407855]},
{"name":"Southend-on-Sea","coordinates":[0.711497,51.5388733]},
{"name":"Kendari","coordinates":[122.5180066,-3.9918068]},
{"name":"Al Jahra","coordinates":[47.6722054,29.3474636]},
{"name":"Palopo","coordinates":[120.19206790000001,-2.9996306]},
{"name":"Firozabad","coordinates":[78.3991439,27.1527986]},
{"name":"Katihar","coordinates":[87.5690417,25.5433817]},
{"name":"Rourkela","coordinates":[84.8678705,22.2309255]},
{"name":"Helsinki","coordinates":[24.9425683,60.1674086]},
{"name":"Yogyakarta","coordinates":[110.364917,-7.8011945]},
{"name":"Hawassa","coordinates":[38.47861,7.0481029]},
{"name":"Bhiwani","coordinates":[76.13912830000001,28.7931703]},
{"name":"Nakhon Ratchasima","coordinates":[102.0870812,14.9711601]},
{"name":"Bathinda","coordinates":[74.94853710000001,30.2081076]},
{"name":"Rohtak","coordinates":[76.5801935,28.9010899]},
{"name":"Bikaner","coordinates":[73.3171367,28.0159286]},
{"name":"Orsk","coordinates":[58.4738015,51.2305015]},
{"name":"Pangkalpinang","coordinates":[106.1134604,-2.1206733]},
{"name":"Baguio","coordinates":[120.5933937,16.412007]},
{"name":"Shibuya","coordinates":[139.69871070000002,35.6645956]},
{"name":"Tachikawa","coordinates":[139.404766,35.724463]},
{"name":"Minuma","coordinates":[139.669818,35.926188]},
{"name":"Petropavl","coordinates":[69.1334984,54.8668104]},
{"name":"Ulan-Ude","coordinates":[107.5839105,51.8357841]},
{"name":"Shymkent","coordinates":[69.5883282,42.3146962]},
{"name":"Split","coordinates":[16.4396801,43.5115555]},
{"name":"Jamalpur","coordinates":[89.9478205,24.9277076]},
{"name":"Najafabad","coordinates":[51.3656199,32.6334121]},
{"name":"Yazd","coordinates":[54.3641264,31.8886686]},
{"name":"Alwar","coordinates":[76.6131841,27.5646036]},
{"name":"Ōita Prefecture","coordinates":[131.4270217,33.1819875]},
{"name":"Zarqa","coordinates":[36.0885771,32.0668425]},
{"name":"Temuco","coordinates":[-72.5905979,-38.7362442]},
{"name":"Rochester","coordinates":[-77.615214,43.157285]},
{"name":"Grozny","coordinates":[45.698967,43.316845]},
{"name":"Kryvyi Rih","coordinates":[33.3917703,47.9102734]},
{"name":"Gandhidham","coordinates":[70.131715,23.0718743]},
{"name":"Tampines","coordinates":[103.9435712,1.3546528]},
{"name":"Augsburg","coordinates":[10.8986971,48.3668041]},
{"name":"Gharyan","coordinates":[13.0211451,32.1715873]},
{"name":"Nuremberg","coordinates":[11.077298,49.453872]},
{"name":"Kassel","coordinates":[9.4762981,51.3090209]},
{"name":"Hiroshima","coordinates":[132.4518156,34.3916058]},
{"name":"Daloa","coordinates":[-6.4516096,6.8766904]},
{"name":"Korhogo","coordinates":[-5.6342471,9.4574719]},
{"name":"Kalyan-Dombivli","coordinates":[73.1182464,19.2334875]},