{"name":"Novosibirsk","geometry":{"type":"Point","coordinates":[82.9234509,55.0282171]},"type":"city"}
{"name":"London","geometry":{"type":"Point","coordinates":[-0.1276474,51.5073219]},"type":"city"}
{"name":"Wellington","geometry":{"type":"Point","coordinates":[174.77720920000002,-41.2887467]},"type":"city"}
{"name":"Leeds","geometry":{"type":"Point","coordinates":[-1.5437941,53.7974185]},"type":"city"}
{"name":"Athens","geometry":{"type":"Point","coordinates":[23.7279843,37.9841493]},"type":"city"}
{"name":"California","geometry":{"type":"Point","coordinates":[-118.75599740000001,36.7014631]},"type":"state"}
{"name":"Ljubljana","geometry":{"type":"Point","coordinates":[14.5068921,46.049865]},"type":"city"}
{"name":"Glasgow","geometry":{"type":"Point","coordinates":[-4.2435817,55.856656]},"type":"city"}
{"name":"Copenhagen","geometry":{"type":"Point","coordinates":[12.5700724,55.6867243]},"type":"city"}
{"name":"Quezon City","geometry":{"type":"Point","coordinates":[121.04861550000001,14.6509905]},"type":"city"}
{"name":"Mumbai","geometry":{"type":"Point","coordinates":[72.8353355,18.9387711]},"type":"city"}
{"name":"New Delhi","geometry":{"type":"Point","coordinates":[77.20226620000001,28.6141793]},"type":"city"}
{"name":"Lahore","geometry":{"type":"Point","coordinates":[74.3294942,31.5164908]},"type":"city"}
{"name":"Pune","geometry":{"type":"Point","coordinates":[73.8543185,18.5203062]},"type":"city"}
{"name":"Vienna","geometry":{"type":"Point","coordinates":[16.3725042,48.2083537]},"type":"city"}
{"name":"Paris","geometry":{"type":"Point","coordinates":[2.3514992,48.8566101]},"type":"city"}
{"name":"Birmingham","geometry":{"type":"Point","coordinates":[-1.894053,52.4775396]},"type":"city"}
{"name":"Plymouth","geometry":{"type":"Point","coordinates":[-4.1425658,50.3712659]},"type":"city"}
{"name":"Toronto","geometry":{"type":"Point","coordinates":[-79.387207,43.653963]},"type":"city"}
{"name":"Ottawa","geometry":{"type":"Point","coordinates":[-75.690308,45.421106]},"type":"city"}
{"name":"Milton Keynes","geometry":{"type":"Point","coordinates":[-0.7589607,52.0429797]},"type":"town"}
{"name":"Lyon","geometry":{"type":"Point","coordinates":[4.8320114,45.7578137]},"type":"city"}
{"name":"Hamburg","geometry":{"type":"Point","coordinates":[10.000654,53.550341]},"type":"city"}
{"name":"Cologne","geometry":{"type":"Point","coordinates":[6.959974,50.938361]},"type":"city"}
{"name":"Sunderland","geometry":{"type":"Point","coordinates":[-1.375053,54.9063791]},"type":"city"}
{"name":"Christiania","geometry":{"type":"Point","coordinates":[10.7391112,59.9132694]},"type":"city"}
{"name":"Graz","geometry":{"type":"Point","coordinates":[15.4385716,47.0702563]},"type":"city"}
{"name":"Wakefield","geometry":{"type":"Point","coordinates":[-1.5000466,53.6825669]},"type":"city"}
{"name":"Baghdad","geometry":{"type":"Point","coordinates":[44.3787992,33.3024309]},"type":"city"}
{"name":"Aberdeen","geometry":{"type":"Point","coordinates":[-2.0928095,57.1482429]},"type":"city"}
{"name":"Swansea","geometry":{"type":"Point","coordinates":[-3.9467751,51.6211442]},"type":"city"}
{"name":"Honolulu","geometry":{"type":"Point","coordinates":[-157.85567640000002,21.304547]},"type":"city"}
{"name":"Canberra","geometry":{"type":"Point","coordinates":[149.1012676,-35.2975906]},"type":"city"}
{"name":"Kabul","geometry":{"type":"Point","coordinates":[69.1776476,34.5260131]},"type":"city"}
{"name":"Derby","geometry":{"type":"Point","coordinates":[-1.4761491,52.9212617]},"type":"city"}
{"name":"Freiburg im Breisgau","geometry":{"type":"Point","coordinates":[7.8238644,48.0021641]},"type":"county"}
{"name":"Hong Kong","geometry":{"type":"Point","coordinates":[114.1849161,22.350627]},"type":"state"}
{"name":"Nottingham","geometry":{"type":"Point","coordinates":[-1.1492773,52.9534161]},"type":"city"}
{"name":"Beijing","geometry":{"type":"Point","coordinates":[116.391248,39.9059631]},"type":"city"}
{"name":"Lübeck","geometry":{"type":"Point","coordinates":[10.684738,53.866444]},"type":"city"}
{"name":"Port Elizabeth","geometry":{"type":"Point","coordinates":[25.6207519,-33.9617051]},"type":"city"}
{"name":"Casablanca","geometry":{"type":"Point","coordinates":[-7.6187768,33.5950627]},"type":"city"}
{"name":"Newcastle","geometry":{"type":"Point","coordinates":[151.7812534,-32.9272881]},"type":"city"}
{"name":"Eskisehir","geometry":{"type":"Point","coordinates":[30.5255947,39.7666813]},"type":"city"}
{"name":"Aydin","geometry":{"type":"Point","coordinates":[27.8328374,37.8413007]},"type":"city"}
{"name":"Europe","geometry":{"type":"Point","coordinates":[10,51]},"type":"continent"}
{"name":"Stockholm","geometry":{"type":"Point","coordinates":[18.0710935,59.3251172]},"type":"city"}
{"name":"Gothenburg","geometry":{"type":"Point","coordinates":[11.9670171,57.7072326]},"type":"city"}
{"name":"Tehran","geometry":{"type":"Point","coordinates":[51.4013785,35.7006177]},"type":"city"}
{"name":"Philippines","geometry":{"type":"Point","coordinates":[122.73121010000001,12.7503486]},"type":"country"}
{"name":"Isfahan","geometry":{"type":"Point","coordinates":[51.6650002,32.6707877]},"type":"city"}
{"name":"Mashhad","geometry":{"type":"Point","coordinates":[59.6059232,36.2974945]},"type":"city"}
{"name":"Tabriz","geometry":{"type":"Point","coordinates":[46.2961952,38.0739964]},"type":"city"}
{"name":"Qazvin","geometry":{"type":"Point","coordinates":[50.006663,36.2804074]},"type":"city"}
{"name":"Qom","geometry":{"type":"Point","coordinates":[50.8799831,34.6423134]},"type":"city"}
{"name":"Shiraz","geometry":{"type":"Point","coordinates":[52.5378041,29.6060218]},"type":"city"}
{"name":"Kyiv","geometry":{"type":"Point","coordinates":[30.5240501,50.4501071]},"type":"city"}
{"name":"Chernihiv","geometry":{"type":"Point","coordinates":[31.294332,51.494099]},"type":"city"}
{"name":"Odessa","geometry":{"type":"Point","coordinates":[30.732564,46.4846583]},"type":"city"}
{"name":"Lviv","geometry":{"type":"Point","coordinates":[24.0315921,49.841952]},"type":"city"}
{"name":"Homel","geometry":{"type":"Point","coordinates":[31.0131698,52.4238936]},"type":"city"}
{"name":"Minsk","geometry":{"type":"Point","coordinates":[27.5618791,53.902334]},"type":"city"}
{"name":"Italy","geometry":{"type":"Point","coordinates":[12.674297,42.6384261]},"type":"country"}
{"name":"Havana","geometry":{"type":"Point","coordinates":[-82.3658671,23.138028]},"type":"city"}
{"name":"Urmia","geometry":{"type":"Point","coordinates":[45.0682863,37.5493473]},"type":"city"}
{"name":"Gdansk","geometry":{"type":"Point","coordinates":[18.6452324,54.347629]},"type":"city"}
{"name":"Antakya","geometry":{"type":"Point","coordinates":[36.1653617,36.2176872]},"type":"city"}
{"name":"Adiyaman","geometry":{"type":"Point","coordinates":[38.2764355,37.7640008]},"type":"city"}
{"name":"Diyarbakir","geometry":{"type":"Point","coordinates":[40.2226158,37.9166031]},"type":"city"}
{"name":"Şanlıurfa","geometry":{"type":"Point","coordinates":[38.7916052,37.1601999]},"type":"city"}
{"name":"Gaziantep","geometry":{"type":"Point","coordinates":[37.3793085,37.0611756]},"type":"city"}
{"name":"Stoke-on-Trent","geometry":{"type":"Point","coordinates":[-2.1812607,53.0162014]},"type":"city"}
{"name":"Almaty","geometry":{"type":"Point","coordinates":[76.9457275,43.2363924]},"type":"city"}
{"name":"Magway","geometry":{"type":"Point","coordinates":[94.92135180000001,20.1491458]},"type":"city"}
{"name":"Pyin Oo Lwin","geometry":{"type":"Point","coordinates":[96.466667,22.0333331]},"type":"city"}
{"name":"Yangon","geometry":{"type":"Point","coordinates":[96.1609916,16.7967129]},"type":"city"}
{"name":"Pathein","geometry":{"type":"Point","coordinates":[94.733333,16.783333]},"type":"city"}
{"name":"Sagaing","geometry":{"type":"Point","coordinates":[95.9839956,21.8774215]},"type":"city"}
{"name":"Bago","geometry":{"type":"Point","coordinates":[96.479722,17.336667]},"type":"city"}
{"name":"Mandalay","geometry":{"type":"Point","coordinates":[96.082375,21.9812746]},"type":"city"}
{"name":"Myeik","geometry":{"type":"Point","coordinates":[98.5955711,12.4319552]},"type":"city"}
{"name":"Zahedan","geometry":{"type":"Point","coordinates":[60.8503017,29.4928874]},"type":"city"}
{"name":"Saskatoon","geometry":{"type":"Point","coordinates":[-106.660767,52.131802]},"type":"city"}
{"name":"Rennes","geometry":{"type":"Point","coordinates":[-1.6800198,48.1113387]},"type":"city"}
{"name":"Bradford","geometry":{"type":"Point","coordinates":[-1.7519186,53.7944229]},"type":"city"}
{"name":"Riga","geometry":{"type":"Point","coordinates":[24.1051846,56.9493977]},"type":"city"}
{"name":"Oujda","geometry":{"type":"Point","coordinates":[-1.929306,34.677874]},"type":"city"}
{"name":"Marseille","geometry":{"type":"Point","coordinates":[5.3699525,43.2961743]},"type":"city"}
{"name":"San Francisco","geometry":{"type":"Point","coordinates":[-122.4192363,37.7792808]},"type":"city"}
{"name":"Afghanistan","geometry":{"type":"Point","coordinates":[66.2385139,33.7680065]},"type":"country"}
{"name":"Austria","geometry":{"type":"Point","coordinates":[13.199959,47.2000338]},"type":"country"}
{"name":"Petrozavodsk","geometry":{"type":"Point","coordinates":[34.390007,61.790039]},"type":"city"}
{"name":"Vologda","geometry":{"type":"Point","coordinates":[39.893276,59.218876]},"type":"city"}
{"name":"Tver","geometry":{"type":"Point","coordinates":[35.9208284,56.858675]},"type":"city"}
{"name":"Veliky Novgorod","geometry":{"type":"Point","coordinates":[31.2757862,58.5209862]},"type":"city"}
{"name":"Pskov","geometry":{"type":"Point","coordinates":[28.334368,57.817398]},"type":"city"}
{"name":"Kaliningrad","geometry":{"type":"Point","coordinates":[20.5105166,54.7066422]},"type":"city"}
{"name":"Kinshasa","geometry":{"type":"Point","coordinates":[15.3125974,-4.3217055]},"type":"city"}
{"name":"Bryansk","geometry":{"type":"Point","coordinates":[34.3668288,53.2423778]},"type":"city"}
{"name":"Smolensk","geometry":{"type":"Point","coordinates":[32.0549595,54.7940965]},"type":"city"}
{"name":"Oryol","geometry":{"type":"Point","coordinates":[36.0692477,52.9685433]},"type":"city"}
{"name":"Kursk","geometry":{"type":"Point","coordinates":[36.179604,51.739433]},"type":"city"}
{"name":"Belgorod","geometry":{"type":"Point","coordinates":[36.586933,50.595299]},"type":"city"}
{"name":"Poltava","geometry":{"type":"Point","coordinates":[34.5507948,49.5897423]},"type":"city"}
{"name":"Zaporizhzhia","geometry":{"type":"Point","coordinates":[35.1182867,47.8507859]},"type":"city"}
{"name":"Angeles","geometry":{"type":"Point","coordinates":[120.5879182,15.1399659]},"type":"city"}
{"name":"Brest","geometry":{"type":"Point","coordinates":[23.6851851,52.093751]},"type":"city"}
{"name":"Olongapo","geometry":{"type":"Point","coordinates":[120.2835205,14.8314675]},"type":"city"}
{"name":"Kaunas","geometry":{"type":"Point","coordinates":[23.9044817,54.8982139]},"type":"city"}
{"name":"Vilnius","geometry":{"type":"Point","coordinates":[25.2829111,54.6870458]},"type":"city"}
{"name":"Westminster","geometry":{"type":"Point","coordinates":[-0.137149,51.4973206]},"type":"city"}
{"name":"Frankfort","geometry":{"type":"Point","coordinates":[8.6820917,50.1106444]},"type":"city"}
{"name":"Iquitos","geometry":{"type":"Point","coordinates":[-73.2444145,-3.749365]},"type":"city"}
{"name":"Saint Petersburg","geometry":{"type":"Point","coordinates":[30.316229,59.938732]},"type":"city"}
{"name":"Yekaterinburg","geometry":{"type":"Point","coordinates":[60.60825,56.839104]},"type":"city"}
{"name":"Vladivostok","geometry":{"type":"Point","coordinates":[131.8855768,43.1150678]},"type":"city"}
{"name":"Kazan","geometry":{"type":"Point","coordinates":[49.1242266,55.7823547]},"type":"city"}
{"name":"Omsk","geometry":{"type":"Point","coordinates":[73.371529,54.991375]},"type":"city"}
{"name":"Samara","geometry":{"type":"Point","coordinates":[50.113987,53.198627]},"type":"city"}
{"name":"Chelyabinsk","geometry":{"type":"Point","coordinates":[61.4025547,55.1598408]},"type":"city"}
{"name":"Volgograd","geometry":{"type":"Point","coordinates":[44.516804,48.710678]},"type":"city"}
{"name":"Ufa","geometry":{"type":"Point","coordinates":[55.947727,54.726288]},"type":"city"}
{"name":"Perm","geometry":{"type":"Point","coordinates":[56.246723,58.014965]},"type":"city"}
{"name":"Saratov","geometry":{"type":"Point","coordinates":[46.034683,51.530018]},"type":"city"}
{"name":"Voronezh","geometry":{"type":"Point","coordinates":[39.2005858,51.6605982]},"type":"city"}
{"name":"Yaroslavl","geometry":{"type":"Point","coordinates":[39.8933705,57.6263877]},"type":"city"}
{"name":"Barnaul","geometry":{"type":"Point","coordinates":[83.7784496,53.347402]},"type":"city"}
{"name":"Tolyatti","geometry":{"type":"Point","coordinates":[49.407574,53.51495]},"type":"city"}
{"name":"Irkutsk","geometry":{"type":"Point","coordinates":[104.280586,52.289597]},"type":"city"}
{"name":"Krasnodar","geometry":{"type":"Point","coordinates":[38.9764814,45.0352566]},"type":"city"}
{"name":"Novokuznetsk","geometry":{"type":"Point","coordinates":[87.136101,53.757607]},"type":"city"}
{"name":"Penza","geometry":{"type":"Point","coordinates":[45,53.200001]},"type":"city"}
{"name":"Orenburg","geometry":{"type":"Point","coordinates":[55.097118,51.767452]},"type":"city"}
{"name":"Nizhny Novgorod","geometry":{"type":"Point","coordinates":[44.003506,56.328571]},"type":"city"}
{"name":"Tyumen","geometry":{"type":"Point","coordinates":[65.542274,57.153534]},"type":"city"}
{"name":"Ryazan","geometry":{"type":"Point","coordinates":[39.7425039,54.6295687]},"type":"city"}
{"name":"Bishkek","geometry":{"type":"Point","coordinates":[74.6069949,42.8767446]},"type":"city"}
{"name":"Tashkent","geometry":{"type":"Point","coordinates":[69.2787079,41.3123363]},"type":"city"}
{"name":"Semey","geometry":{"type":"Point","coordinates":[80.249176,50.405029]},"type":"city"}
{"name":"Dushanbe","geometry":{"type":"Point","coordinates":[68.7863573,38.5762709]},"type":"city"}
{"name":"Ulaanbaatar","geometry":{"type":"Point","coordinates":[106.9177016,47.9184676]},"type":"city"}
{"name":"Astana","geometry":{"type":"Point","coordinates":[71.43055,51.128258]},"type":"city"}
{"name":"Hamedan","geometry":{"type":"Point","coordinates":[48.514849,34.7983223]},"type":"city"}
{"name":"Constantine","geometry":{"type":"Point","coordinates":[6.60826,36.364519]},"type":"city"}
{"name":"Bamako","geometry":{"type":"Point","coordinates":[-8.000337,12.649319]},"type":"city"}
{"name":"Suez","geometry":{"type":"Point","coordinates":[32.537086,29.974498]},"type":"city"}
{"name":"Tunis","geometry":{"type":"Point","coordinates":[10.184794,36.800108]},"type":"city"}
{"name":"Lubumbashi","geometry":{"type":"Point","coordinates":[27.4826264,-11.6642316]},"type":"city"}
{"name":"Port Said","geometry":{"type":"Point","coordinates":[32.305505,31.263235]},"type":"city"}
{"name":"Bangui","geometry":{"type":"Point","coordinates":[18.5509126,4.3907153]},"type":"city"}
{"name":"Ouagadougou","geometry":{"type":"Point","coordinates":[-1.527085,12.368148]},"type":"city"}
{"name":"Bouaké","geometry":{"type":"Point","coordinates":[-5.0298408,7.6906058]},"type":"city"}
{"name":"Alexandria","geometry":{"type":"Point","coordinates":[29.894378,31.199004]},"type":"city"}
{"name":"N'Djamena","geometry":{"type":"Point","coordinates":[15.0502758,12.1191543]},"type":"city"}
{"name":"Dar es Salaam","geometry":{"type":"Point","coordinates":[39.2803583,-6.8160837]},"type":"city"}
{"name":"Ogbomosho","geometry":{"type":"Point","coordinates":[4.25,8.133]},"type":"city"}
{"name":"Addis Ababa","geometry":{"type":"Point","coordinates":[38.7612525,9.0107934]},"type":"city"}
{"name":"Agadir","geometry":{"type":"Point","coordinates":[-9.5830626,30.4211144]},"type":"city"}
{"name":"Djibouti","geometry":{"type":"Point","coordinates":[43.14724,11.593665]},"type":"city"}
{"name":"Khartoum","geometry":{"type":"Point","coordinates":[32.53565,15.593325]},"type":"city"}
{"name":"Oran","geometry":{"type":"Point","coordinates":[-0.6492976,35.7032751]},"type":"city"}
{"name":"Giza","geometry":{"type":"Point","coordinates":[31.2134513,30.0170059]},"type":"city"}
{"name":"Jerusalem","geometry":{"type":"Point","coordinates":[35.2250786,31.778345]},"type":"city"}
{"name":"Safi","geometry":{"type":"Point","coordinates":[-9.239533,32.299424]},"type":"city"}
{"name":"Tallinn","geometry":{"type":"Point","coordinates":[24.7453688,59.4372155]},"type":"city"}
{"name":"Edmonton","geometry":{"type":"Point","coordinates":[-113.507996,53.535411]},"type":"city"}
{"name":"Bukhara","geometry":{"type":"Point","coordinates":[64.4231326,39.7675529]},"type":"city"}
{"name":"Madison","geometry":{"type":"Point","coordinates":[-89.3837613,43.074761]},"type":"city"}
{"name":"Mariupol","geometry":{"type":"Point","coordinates":[37.5499333,47.0957773]},"type":"city"}
{"name":"Taganrog","geometry":{"type":"Point","coordinates":[38.903365,47.2136896]},"type":"city"}
{"name":"Lublin","geometry":{"type":"Point","coordinates":[22.5701022,51.250559]},"type":"city"}
{"name":"Ardabil","geometry":{"type":"Point","coordinates":[48.297455,38.2493585]},"type":"city"}
{"name":"Brunswick","geometry":{"type":"Point","coordinates":[10.525291,52.2640651]},"type":"city"}
{"name":"São Paulo","geometry":{"type":"Point","coordinates":[-46.6333824,-23.5506507]},"type":"city"}
{"name":"Quebec","geometry":{"type":"Point","coordinates":[-71.2352226,46.8259601]},"type":"city"}
{"name":"Tarlac City","geometry":{"type":"Point","coordinates":[120.589556,15.485997]},"type":"city"}
{"name":"Tamale","geometry":{"type":"Point","coordinates":[-0.8430289,9.4043366]},"type":"city"}
{"name":"Burgas","geometry":{"type":"Point","coordinates":[27.4721276,42.4936616]},"type":"city"}
{"name":"Varna","geometry":{"type":"Point","coordinates":[27.9150855,43.2069025]},"type":"city"}
{"name":"Lhasa","geometry":{"type":"Point","coordinates":[91.1330128,29.6554138]},"type":"city"}
{"name":"Dubai","geometry":{"type":"Point","coordinates":[55.2961962,25.2683521]},"type":"city"}
{"name":"Mansoura","geometry":{"type":"Point","coordinates":[31.38649,31.037566]},"type":"city"}
{"name":"El Mahalla El Kubra","geometry":{"type":"Point","coordinates":[31.1683002,30.9723517]},"type":"city"}
{"name":"TAKEN OVER BY HOWARD THE ALIEN","geometry":{"type":"Point","coordinates":[125.753388,39.0194741]},"type":"city"}
{"name":"Al Khobar","geometry":{"type":"Point","coordinates":[50.1960237,26.3039999]},"type":"city"}
{"name":"Aleppo","geometry":{"type":"Point","coordinates":[37.1637253,36.19924]},"type":"city"}
{"name":"Nampo","geometry":{"type":"Point","coordinates":[125.4115285,38.7367448]},"type":"city"}
{"name":"Cluj-Napoca","geometry":{"type":"Point","coordinates":[23.5900604,46.7693367]},"type":"city"}
{"name":"Saveh","geometry":{"type":"Point","coordinates":[50.3584834,35.0206133]},"type":"town"}
{"name":"Dezful","geometry":{"type":"Point","coordinates":[48.4032531,32.3780494]},"type":"city"}
{"name":"Kermanshah","geometry":{"type":"Point","coordinates":[47.0735891,34.3239414]},"type":"city"}
{"name":"Mahabad","geometry":{"type":"Point","coordinates":[45.7218136,36.7651739]},"type":"town"}
{"name":"Babol","geometry":{"type":"Point","coordinates":[52.6846571,36.5452581]},"type":"city"}
{"name":"Sabzevar","geometry":{"type":"Point","coordinates":[57.6808799,36.2134053]},"type":"city"}
{"name":"Sari","geometry":{"type":"Point","coordinates":[53.058569,36.5658725]},"type":"city"}
{"name":"Kerman","geometry":{"type":"Point","coordinates":[57.0646827,30.2924363]},"type":"city"}
{"name":"Abadan","geometry":{"type":"Point","coordinates":[48.2591475,30.3636097]},"type":"city"}
{"name":"Zanjan","geometry":{"type":"Point","coordinates":[48.4836607,36.6673217]},"type":"city"}
{"name":"Bojnurd","geometry":{"type":"Point","coordinates":[57.3319881,37.4759752]},"type":"city"}
{"name":"Wonsan","geometry":{"type":"Point","coordinates":[127.453564,39.1532956]},"type":"city"}
{"name":"Sochi","geometry":{"type":"Point","coordinates":[39.723109,43.5854823]},"type":"city"}
{"name":"Valencia","geometry":{"type":"Point","coordinates":[-0.3759513,39.4699014]},"type":"city"}
{"name":"Tula","geometry":{"type":"Point","coordinates":[37.61754,54.1930321]},"type":"city"}
{"name":"Nizhny Tagil","geometry":{"type":"Point","coordinates":[59.9508466,57.905149]},"type":"city"}
{"name":"Brasília","geometry":{"type":"Point","coordinates":[-47.8823172,-15.7934036]},"type":"city"}
{"name":"Rio de Janeiro","geometry":{"type":"Point","coordinates":[-43.2093727,-22.9110137]},"type":"city"}
{"name":"Mogadishu","geometry":{"type":"Point","coordinates":[45.338564,2.042778]},"type":"city"}
{"name":"Washington","geometry":{"type":"Point","coordinates":[-120.2126139,47.2868352]},"type":"state"}
{"name":"Stavropol","geometry":{"type":"Point","coordinates":[41.9690934,45.0433245]},"type":"city"}
{"name":"Africa","geometry":{"type":"Point","coordinates":[15.9999997,2.0000003]},"type":"continent"}
{"name":"North America","geometry":{"type":"Point","coordinates":[-109.0000002,51.0000002]},"type":"continent"}
{"name":"South America","geometry":{"type":"Point","coordinates":[-61.0006565,-21.0002179]},"type":"continent"}
{"name":"Asia","geometry":{"type":"Point","coordinates":[103.99999980000001,56.0000002]},"type":"continent"}
{"name":"Nashville","geometry":{"type":"Point","coordinates":[-86.7743531,36.1622296]},"type":"city"}
{"name":"Jubail","geometry":{"type":"Point","coordinates":[49.6532161,27.0006968]},"type":"city"}
{"name":"Donetsk","geometry":{"type":"Point","coordinates":[37.8013407,48.0158753]},"type":"city"}
{"name":"Rotterdam","geometry":{"type":"Point","coordinates":[4.4631727,51.9228958]},"type":"city"}
{"name":"Meru","geometry":{"type":"Point","coordinates":[37.6500063,0.0500034]},"type":"city"}
{"name":"Spokane","geometry":{"type":"Point","coordinates":[-117.4212265,47.6579425]},"type":"city"}
{"name":"La Serena","geometry":{"type":"Point","coordinates":[-71.2520136,-29.9026615]},"type":"city"}
{"name":"Talca","geometry":{"type":"Point","coordinates":[-71.6661153,-35.4266305]},"type":"city"}
{"name":"El Paso","geometry":{"type":"Point","coordinates":[-106.487287,31.7600372]},"type":"city"}
{"name":"Colombo","geometry":{"type":"Point","coordinates":[79.8538463,6.9349969]},"type":"city"}
{"name":"Vancouver","geometry":{"type":"Point","coordinates":[-123.1139529,49.2608724]},"type":"city"}
{"name":"Winnipeg","geometry":{"type":"Point","coordinates":[-97.168579,49.884017]},"type":"city"}
{"name":"Kingston","geometry":{"type":"Point","coordinates":[-76.7928128,17.9712148]},"type":"city"}
{"name":"Timișoara","geometry":{"type":"Point","coordinates":[21.2257474,45.7538355]},"type":"city"}
{"name":"Meguro","geometry":{"type":"Point","coordinates":[139.688014,35.62125]},"type":"city"}
{"name":"Thessaloniki","geometry":{"type":"Point","coordinates":[22.9352716,40.6403167]},"type":"city"}
{"name":"Osaka","geometry":{"type":"Point","coordinates":[135.5018186,34.7043176]},"type":"city"}
{"name":"Sapporo","geometry":{"type":"Point","coordinates":[141.337215,43.044768]},"type":"city"}
{"name":"Rawalpindi","geometry":{"type":"Point","coordinates":[73.0535122,33.5914237]},"type":"city"}
{"name":"Cuernavaca","geometry":{"type":"Point","coordinates":[-99.2342282,18.9218274]},"type":"city"}
{"name":"Novi Sad","geometry":{"type":"Point","coordinates":[19.8451756,45.2551338]},"type":"city"}
{"name":"Boise","geometry":{"type":"Point","coordinates":[-116.200835,43.61656]},"type":"city"}
{"name":"Białystok","geometry":{"type":"Point","coordinates":[23.1591679,53.132398]},"type":"city"}
{"name":"Mykolaiv","geometry":{"type":"Point","coordinates":[32.0042471,46.9713483]},"type":"city"}
{"name":"Belgrade","geometry":{"type":"Point","coordinates":[20.4568974,44.8178131]},"type":"city"}
{"name":"Pingzhen","geometry":{"type":"Point","coordinates":[121.21835940000001,24.9457522]},"type":"town"}
{"name":"Banqiao","geometry":{"type":"Point","coordinates":[121.4590989,25.0096703]},"type":"suburb"}
{"name":"Changhua","geometry":{"type":"Point","coordinates":[120.5423,24.0807667]},"type":"town"}
{"name":"Pingtung","geometry":{"type":"Point","coordinates":[120.4884652,22.6697227]},"type":"town"}
{"name":"Zhonghe","geometry":{"type":"Point","coordinates":[121.49898,24.999397]},"type":"suburb"}
{"name":"Taoyuan","geometry":{"type":"Point","coordinates":[121.30100030000001,24.9929995]},"type":"city"}
{"name":"Xindian","geometry":{"type":"Point","coordinates":[121.5415784,24.9673093]},"type":"suburb"}
{"name":"Kaohsiung","geometry":{"type":"Point","coordinates":[120.3120375,22.6203348]},"type":"city"}
{"name":"Sanmin","geometry":{"type":"Point","coordinates":[120.2996219,22.6476949]},"type":"suburb"}
{"name":"New Taipei","geometry":{"type":"Point","coordinates":[121.4656619,25.011997]},"type":"city"}
{"name":"Beitun","geometry":{"type":"Point","coordinates":[120.6862883,24.1822644]},"type":"suburb"}
{"name":"Zhongshan","geometry":{"type":"Point","coordinates":[121.533468,25.0643611]},"type":"suburb"}
{"name":"Yongkang","geometry":{"type":"Point","coordinates":[120.2521025,23.0290427]},"type":"town"}
{"name":"Da'an","geometry":{"type":"Point","coordinates":[121.534395,25.0265152]},"type":"suburb"}
{"name":"Xinzhuang","geometry":{"type":"Point","coordinates":[121.45024780000001,25.0357722]},"type":"suburb"}
{"name":"Beitou","geometry":{"type":"Point","coordinates":[121.501379,25.132419]},"type":"suburb"}
{"name":"Taoyuan","geometry":{"type":"Point","coordinates":[121.30168,24.993923]},"type":"town"}
{"name":"Sanchong","geometry":{"type":"Point","coordinates":[121.488102,25.061486]},"type":"suburb"}
{"name":"Tucheng","geometry":{"type":"Point","coordinates":[121.443348,24.972201]},"type":"suburb"}
{"name":"Taichung","geometry":{"type":"Point","coordinates":[120.6478282,24.163162]},"type":"city"}
{"name":"Xitun","geometry":{"type":"Point","coordinates":[120.633655,24.1653026]},"type":"suburb"}
{"name":"Chiayi","geometry":{"type":"Point","coordinates":[120.4535412,23.4811089]},"type":"city"}
{"name":"Fengshan","geometry":{"type":"Point","coordinates":[120.3627723,22.6270943]},"type":"suburb"}
{"name":"Songshan","geometry":{"type":"Point","coordinates":[121.57727190000001,25.0498852]},"type":"suburb"}
{"name":"Wenshan","geometry":{"type":"Point","coordinates":[121.570458,24.989786]},"type":"suburb"}
{"name":"Shilin","geometry":{"type":"Point","coordinates":[121.5242068,25.0918396]},"type":"suburb"}
{"name":"Neihu","geometry":{"type":"Point","coordinates":[121.58899830000001,25.069664]},"type":"suburb"}
{"name":"Dali","geometry":{"type":"Point","coordinates":[120.67786,24.09939]},"type":"suburb"}
{"name":"Luzhou","geometry":{"type":"Point","coordinates":[121.4737,25.084923]},"type":"suburb"}
{"name":"Hsinchu","geometry":{"type":"Point","coordinates":[120.9686833,24.8066333]},"type":"city"}
{"name":"Gujranwala","geometry":{"type":"Point","coordinates":[74.1933745,32.1525312]},"type":"city"}
{"name":"Florence","geometry":{"type":"Point","coordinates":[11.2555757,43.7698712]},"type":"city"}
{"name":"New York","geometry":{"type":"Point","coordinates":[-73.9866136,40.7306458]},"type":"city"}
{"name":"Patras","geometry":{"type":"Point","coordinates":[21.7350847,38.246242]},"type":"city"}
{"name":"Mexico City","geometry":{"type":"Point","coordinates":[-99.1333416,19.4326009]},"type":"city"}
{"name":"Milan","geometry":{"type":"Point","coordinates":[9.1904984,45.4667971]},"type":"city"}
{"name":"Turin","geometry":{"type":"Point","coordinates":[7.6824892,45.0677551]},"type":"city"}
{"name":"Venice","geometry":{"type":"Point","coordinates":[12.3345898,45.4371908]},"type":"city"}
{"name":"Jhelum","geometry":{"type":"Point","coordinates":[73.719388,32.9247256]},"type":"city"}
{"name":"Triest","geometry":{"type":"Point","coordinates":[13.7706559,45.6500335]},"type":"city"}
{"name":"Genoa","geometry":{"type":"Point","coordinates":[8.9338624,44.40726]},"type":"city"}
{"name":"Kathmandu","geometry":{"type":"Point","coordinates":[85.320244,27.708796]},"type":"city"}
{"name":"Gonder","geometry":{"type":"Point","coordinates":[37.466766,12.610368]},"type":"city"}
{"name":"Rome","geometry":{"type":"Point","coordinates":[12.4853384,41.894802]},"type":"city"}
{"name":"Hanoi","geometry":{"type":"Point","coordinates":[105.85247,21.0292095]},"type":"city"}
{"name":"Lipetsk","geometry":{"type":"Point","coordinates":[39.5936899,52.6041877]},"type":"city"}
{"name":"Quetta","geometry":{"type":"Point","coordinates":[67.0184433,30.1891852]},"type":"city"}
{"name":"Buenos Aires","geometry":{"type":"Point","coordinates":[-58.437076,-34.6075616]},"type":"city"}
{"name":"Al Ain","geometry":{"type":"Point","coordinates":[55.7474052,24.2258413]},"type":"city"}
{"name":"Puerto Montt","geometry":{"type":"Point","coordinates":[-72.939621,-41.4718121]},"type":"city"}
{"name":"Budapest","geometry":{"type":"Point","coordinates":[19.0404707,47.4983815]},"type":"city"}
{"name":"Novorossiysk","geometry":{"type":"Point","coordinates":[37.7690711,44.7239578]},"type":"city"}
{"name":"Sukkur","geometry":{"type":"Point","coordinates":[68.8588754,27.6961883]},"type":"city"}
{"name":"Florianópolis","geometry":{"type":"Point","coordinates":[-48.5496098,-27.5973002]},"type":"city"}
{"name":"Nalchik","geometry":{"type":"Point","coordinates":[43.5966578,43.4769604]},"type":"city"}
{"name":"Mosul","geometry":{"type":"Point","coordinates":[43.1291386,36.3415843]},"type":"city"}
{"name":"Bucharest","geometry":{"type":"Point","coordinates":[26.1027202,44.4361414]},"type":"city"}
{"name":"Juba","geometry":{"type":"Point","coordinates":[31.5951655,4.8472017]},"type":"city"}
{"name":"Kandahar","geometry":{"type":"Point","coordinates":[65.71447710000001,31.6257718]},"type":"city"}
{"name":"Duhok","geometry":{"type":"Point","coordinates":[42.9924528,36.8542598]},"type":"city"}
{"name":"Orlando","geometry":{"type":"Point","coordinates":[-81.3790388,28.5421097]},"type":"city"}
{"name":"Nis","geometry":{"type":"Point","coordinates":[21.8957301,43.321504]},"type":"city"}
{"name":"Engels","geometry":{"type":"Point","coordinates":[46.1233093,51.5013775]},"type":"city"}
{"name":"Kirov","geometry":{"type":"Point","coordinates":[49.6639029,58.6035257]},"type":"city"}
{"name":"Ensenada","geometry":{"type":"Point","coordinates":[-116.62482460000001,31.860742]},"type":"city"}
{"name":"Vientiane","geometry":{"type":"Point","coordinates":[102.6133707,17.9640988]},"type":"city"}
{"name":"Des Moines","geometry":{"type":"Point","coordinates":[-93.6037149,41.5910641]},"type":"city"}
{"name":"Kishinev","geometry":{"type":"Point","coordinates":[28.8322534,47.0244707]},"type":"city"}
{"name":"Yerevan","geometry":{"type":"Point","coordinates":[44.5125849,40.1776121]},"type":"city"}
{"name":"Al-Qamishli","geometry":{"type":"Point","coordinates":[41.2328836,37.0402529]},"type":"city"}
{"name":"Takoradi","geometry":{"type":"Point","coordinates":[-1.7519316,4.887401]},"type":"town"}
{"name":"Khimki","geometry":{"type":"Point","coordinates":[37.4449896,55.8892847]},"type":"city"}
{"name":"Gold Coast","geometry":{"type":"Point","coordinates":[153.4145987,-28.0023731]},"type":"city"}
{"name":"Rivne","geometry":{"type":"Point","coordinates":[26.2513165,50.6196175]},"type":"city"}
{"name":"Lutsk","geometry":{"type":"Point","coordinates":[25.320078,50.7450733]},"type":"city"}
{"name":"Spain","geometry":{"type":"Point","coordinates":[-4.8380649,39.3262345]},"type":"country"}
{"name":"Kostroma","geometry":{"type":"Point","coordinates":[40.9269141,57.7679158]},"type":"city"}
{"name":"Ivanovo","geometry":{"type":"Point","coordinates":[40.9737394,56.9984452]},"type":"city"}
{"name":"15th Arrondissement","geometry":{"type":"Point","coordinates":[2.3003827,48.8413705]},"type":"suburb"}
{"name":"Salt Lake City","geometry":{"type":"Point","coordinates":[-111.8904308,40.7670126]},"type":"city"}
{"name":"Gilbert","geometry":{"type":"Point","coordinates":[-111.7890239,33.3528259]},"type":"town"}
{"name":"Reno","geometry":{"type":"Point","coordinates":[-119.81367440000001,39.52927]},"type":"city"}
{"name":"Tucson","geometry":{"type":"Point","coordinates":[-110.9262353,32.2218917]},"type":"city"}
{"name":"Phoenix","geometry":{"type":"Point","coordinates":[-112.0773456,33.4485866]},"type":"city"}
{"name":"Oakland","geometry":{"type":"Point","coordinates":[-122.2713563,37.8044557]},"type":"city"}
{"name":"Albuquerque","geometry":{"type":"Point","coordinates":[-106.6509851,35.0841034]},"type":"city"}
{"name":"Lubbock","geometry":{"type":"Point","coordinates":[-101.85516650000001,33.5778631]},"type":"city"}
{"name":"Saint Paul","geometry":{"type":"Point","coordinates":[-93.1015026,44.9504037]},"type":"city"}
{"name":"Denver","geometry":{"type":"Point","coordinates":[-104.984696,39.7391428]},"type":"city"}
{"name":"Lincoln","geometry":{"type":"Point","coordinates":[-96.667821,40.8]},"type":"city"}
{"name":"Corpus Christi","geometry":{"type":"Point","coordinates":[-97.3955744,27.8002542]},"type":"city"}
{"name":"Baton Rouge","geometry":{"type":"Point","coordinates":[-91.18738,30.4459596]},"type":"city"}
{"name":"Laredo","geometry":{"type":"Point","coordinates":[-99.5088979,27.5060991]},"type":"city"}
{"name":"Indianapolis","geometry":{"type":"Point","coordinates":[-86.1583502,39.7683331]},"type":"city"}
{"name":"Montgomery","geometry":{"type":"Point","coordinates":[-86.3006485,32.3669656]},"type":"city"}
{"name":"Atlanta","geometry":{"type":"Point","coordinates":[-84.3901849,33.7490987]},"type":"city"}
{"name":"Winston-Salem","geometry":{"type":"Point","coordinates":[-80.2440518,36.0998131]},"type":"city"}
{"name":"Tampa","geometry":{"type":"Point","coordinates":[-82.458444,27.9477595]},"type":"city"}
{"name":"Columbus","geometry":{"type":"Point","coordinates":[-83.0007065,39.9622601]},"type":"city"}
{"name":"Charlotte","geometry":{"type":"Point","coordinates":[-80.8431268,35.2270869]},"type":"city"}
{"name":"Saint Petersburg","geometry":{"type":"Point","coordinates":[-82.6695085,27.7703796]},"type":"city"}
{"name":"Jacksonville","geometry":{"type":"Point","coordinates":[-81.655651,30.3321838]},"type":"city"}
{"name":"São Luís","geometry":{"type":"Point","coordinates":[-44.2933276,-2.5319224]},"type":"city"}
{"name":"Fayetteville","geometry":{"type":"Point","coordinates":[-78.878292,35.0525759]},"type":"city"}
{"name":"Buffalo","geometry":{"type":"Point","coordinates":[-78.8783922,42.8867166]},"type":"city"}
{"name":"Washington D.C.","geometry":{"type":"Point","coordinates":[-77.0366456,38.8949549]},"type":"city"}
{"name":"Greensboro","geometry":{"type":"Point","coordinates":[-79.7919754,36.0726355]},"type":"city"}
{"name":"Durham","geometry":{"type":"Point","coordinates":[-78.9018053,35.996653]},"type":"city"}
{"name":"Raleigh","geometry":{"type":"Point","coordinates":[-78.6390989,35.7803977]},"type":"city"}
{"name":"Boston","geometry":{"type":"Point","coordinates":[-71.0582912,42.3602534]},"type":"city"}
{"name":"Rostov-on-Don","geometry":{"type":"Point","coordinates":[39.716486,47.2246949]},"type":"city"}
{"name":"Tomsk","geometry":{"type":"Point","coordinates":[84.952324,56.488712]},"type":"city"}
{"name":"Skopje","geometry":{"type":"Point","coordinates":[21.4316495,41.9960924]},"type":"city"}
{"name":"Krasnoyarsk","geometry":{"type":"Point","coordinates":[92.87251470000001,56.0090968]},"type":"city"}
{"name":"Kurgan","geometry":{"type":"Point","coordinates":[65.321877,55.45435]},"type":"city"}
{"name":"Ganja","geometry":{"type":"Point","coordinates":[46.3564509,40.6794747]},"type":"city"}
{"name":"Asahikawa","geometry":{"type":"Point","coordinates":[142.371544,43.758203]},"type":"city"}
{"name":"Cherepovets","geometry":{"type":"Point","coordinates":[37.916389,59.128696]},"type":"city"}
{"name":"Kure","geometry":{"type":"Point","coordinates":[132.637412,34.223569]},"type":"city"}
{"name":"Syktyvkar","geometry":{"type":"Point","coordinates":[50.834958,61.6689734]},"type":"city"}
{"name":"Saransk","geometry":{"type":"Point","coordinates":[45.18383,54.18671]},"type":"city"}
{"name":"Makhachkala","geometry":{"type":"Point","coordinates":[47.49612,42.97554]},"type":"city"}
{"name":"Yoshkar-Ola","geometry":{"type":"Point","coordinates":[47.8953961,56.6327144]},"type":"city"}
{"name":"Yakutsk","geometry":{"type":"Point","coordinates":[129.732086,62.027287]},"type":"city"}
{"name":"Astrakhan","geometry":{"type":"Point","coordinates":[48.031567,46.349854]},"type":"city"}
{"name":"Tambov","geometry":{"type":"Point","coordinates":[41.45536,52.72879]},"type":"city"}
{"name":"Naberezhnye Chelny","geometry":{"type":"Point","coordinates":[52.3992173,55.7420117]},"type":"city"}
{"name":"Vladimir","geometry":{"type":"Point","coordinates":[40.4075203,56.1288899]},"type":"city"}
{"name":"Surgut","geometry":{"type":"Point","coordinates":[73.3964,61.254032]},"type":"city"}
{"name":"Volzhskiy","geometry":{"type":"Point","coordinates":[44.7779843,48.782102]},"type":"city"}
{"name":"Sterlitamak","geometry":{"type":"Point","coordinates":[55.952259,53.632374]},"type":"city"}
{"name":"Bratsk","geometry":{"type":"Point","coordinates":[101.63349070000001,56.1517085]},"type":"city"}
{"name":"Komsomolsk-on-Amur","geometry":{"type":"Point","coordinates":[137.020782,50.550877]},"type":"city"}
{"name":"Angarsk","geometry":{"type":"Point","coordinates":[103.8826109,52.5311117]},"type":"city"}
{"name":"Dzerzhinsk","geometry":{"type":"Point","coordinates":[43.4617405,56.2382157]},"type":"city"}
{"name":"Nizhnevartovsk","geometry":{"type":"Point","coordinates":[76.580368,60.934044]},"type":"city"}
{"name":"Shakhty","geometry":{"type":"Point","coordinates":[40.2115699,47.7119167]},"type":"city"}
{"name":"Korolyov","geometry":{"type":"Point","coordinates":[37.8326289,55.9204898]},"type":"city"}
{"name":"Latakia","geometry":{"type":"Point","coordinates":[35.7781044,35.5200185]},"type":"city"}
{"name":"Fallujah","geometry":{"type":"Point","coordinates":[43.7875674,33.3532137]},"type":"city"}
{"name":"Babruysk","geometry":{"type":"Point","coordinates":[29.2281209,53.1449683]},"type":"city"}
{"name":"Manaus","geometry":{"type":"Point","coordinates":[-59.9825041,-3.1316333]},"type":"city"}
{"name":"Ashdod","geometry":{"type":"Point","coordinates":[34.652994,31.7977307]},"type":"city"}
{"name":"Rishon LeZion","geometry":{"type":"Point","coordinates":[34.8101149,31.9635712]},"type":"city"}
{"name":"Mar del Plata","geometry":{"type":"Point","coordinates":[-57.5482703,-37.9977225]},"type":"city"}
{"name":"Mendoza","geometry":{"type":"Point","coordinates":[-68.8442956,-32.8897294]},"type":"city"}
{"name":"Neuquén","geometry":{"type":"Point","coordinates":[-68.0592568,-38.9549296]},"type":"city"}
{"name":"Posadas","geometry":{"type":"Point","coordinates":[-55.894295,-27.3664824]},"type":"city"}
{"name":"Salta","geometry":{"type":"Point","coordinates":[-65.4103194,-24.7892946]},"type":"city"}
{"name":"San Juan","geometry":{"type":"Point","coordinates":[-68.5251802,-31.5370909]},"type":"city"}
{"name":"San Miguel de Tucumán","geometry":{"type":"Point","coordinates":[-65.2038133,-26.8303703]},"type":"city"}
{"name":"Santa Fe","geometry":{"type":"Point","coordinates":[-60.7019561,-31.6186951]},"type":"city"}
{"name":"Santiago del Estero","geometry":{"type":"Point","coordinates":[-64.2595062,-27.7877148]},"type":"city"}
{"name":"Bahía Blanca","geometry":{"type":"Point","coordinates":[-62.266245,-38.7182364]},"type":"city"}
{"name":"Formosa","geometry":{"type":"Point","coordinates":[-58.1744976,-26.1852983]},"type":"city"}
{"name":"Gualeguaychu","geometry":{"type":"Point","coordinates":[-58.5103466,-33.0078585]},"type":"city"}
{"name":"Cabuyao","geometry":{"type":"Point","coordinates":[121.1235712,14.2795538]},"type":"city"}
{"name":"Manila","geometry":{"type":"Point","coordinates":[120.9799696,14.5906216]},"type":"city"}
{"name":"Paranaque","geometry":{"type":"Point","coordinates":[120.9915488,14.5007016]},"type":"city"}
{"name":"Dasmarinas","geometry":{"type":"Point","coordinates":[120.93708710000001,14.3270819]},"type":"city"}
{"name":"Santa Rosa","geometry":{"type":"Point","coordinates":[121.112131,14.3143529]},"type":"city"}
{"name":"Las Pinas","geometry":{"type":"Point","coordinates":[120.9819099,14.4806089]},"type":"city"}
{"name":"Calamba","geometry":{"type":"Point","coordinates":[121.1675675,14.2143059]},"type":"city"}
{"name":"Biñan","geometry":{"type":"Point","coordinates":[121.0835962,14.3385061]},"type":"city"}
{"name":"Helike","geometry":{"type":"Point","coordinates":[-0.6988488,38.2653181]},"type":"city"}
{"name":"George Town","geometry":{"type":"Point","coordinates":[100.3303604,5.4166322]},"type":"city"}
{"name":"Curitiba","geometry":{"type":"Point","coordinates":[-49.2712724,-25.4295963]},"type":"city"}
{"name":"Kota Bharu","geometry":{"type":"Point","coordinates":[102.23934550000001,6.1256053]},"type":"city"}
{"name":"Klang","geometry":{"type":"Point","coordinates":[101.4492077,3.0471533]},"type":"city"}
{"name":"Matsuyama","geometry":{"type":"Point","coordinates":[132.7653521,33.8395188]},"type":"city"}
{"name":"Hofuf","geometry":{"type":"Point","coordinates":[49.586973,25.3726249]},"type":"city"}
{"name":"Slovenia","geometry":{"type":"Point","coordinates":[14.4808369,45.8133113]},"type":"country"}
{"name":"Natal","geometry":{"type":"Point","coordinates":[-35.2080905,-5.805398]},"type":"city"}
{"name":"Fortaleza","geometry":{"type":"Point","coordinates":[-38.5217989,-3.7304512]},"type":"city"}
{"name":"Isparta","geometry":{"type":"Point","coordinates":[30.5556933,37.77035]},"type":"city"}
{"name":"Mexicali","geometry":{"type":"Point","coordinates":[-115.4440698,32.6200699]},"type":"city"}
{"name":"Iquique","geometry":{"type":"Point","coordinates":[-70.1524646,-20.2140657]},"type":"city"}
{"name":"Antofagasta","geometry":{"type":"Point","coordinates":[-70.3980033,-23.6463741]},"type":"city"}
{"name":"Muscat","geometry":{"type":"Point","coordinates":[58.5451305,23.5997857]},"type":"city"}
{"name":"Karaj","geometry":{"type":"Point","coordinates":[51.0073853,35.8121955]},"type":"city"}
{"name":"The Hague","geometry":{"type":"Point","coordinates":[4.3113461,52.0799838]},"type":"city"}
{"name":"Utrecht","geometry":{"type":"Point","coordinates":[5.109708,52.0949753]},"type":"city"}
{"name":"Bor","geometry":{"type":"Point","coordinates":[31.5587285,6.2039927]},"type":"city"}
{"name":"Az Zubayr","geometry":{"type":"Point","coordinates":[47.7027042,30.3917664]},"type":"city"}
{"name":"Adama","geometry":{"type":"Point","coordinates":[39.2705461,8.5410261]},"type":"city"}
{"name":"Zurich","geometry":{"type":"Point","coordinates":[8.5423216,47.3723957]},"type":"city"}
{"name":"Mannheim","geometry":{"type":"Point","coordinates":[8.467236,49.489591]},"type":"city"}
{"name":"Freiburg im Breisgau","geometry":{"type":"Point","coordinates":[7.8494005,47.9960901]},"type":"city"}
{"name":"Berlin","geometry":{"type":"Point","coordinates":[13.3888599,52.5170365]},"type":"city"}
{"name":"Dusseldorf","geometry":{"type":"Point","coordinates":[6.7763137,51.2254018]},"type":"city"}
{"name":"Granada","geometry":{"type":"Point","coordinates":[-3.6021928,37.183054]},"type":"city"}
{"name":"Taraz","geometry":{"type":"Point","coordinates":[71.3920902,42.8943882]},"type":"city"}
{"name":"Karaganda","geometry":{"type":"Point","coordinates":[73.1044754,49.816592]},"type":"city"}
{"name":"Pavlodar","geometry":{"type":"Point","coordinates":[76.9646409,52.2839774]},"type":"city"}
{"name":"Aktobe","geometry":{"type":"Point","coordinates":[57.2124606,50.2796448]},"type":"city"}
{"name":"Oskemen","geometry":{"type":"Point","coordinates":[82.611923,49.95649]},"type":"city"}
{"name":"Kyzylorda","geometry":{"type":"Point","coordinates":[65.493294,44.857548]},"type":"city"}
{"name":"Vitebsk","geometry":{"type":"Point","coordinates":[30.2070437,55.1930197]},"type":"city"}
{"name":"Vitória","geometry":{"type":"Point","coordinates":[-40.3376682,-20.3200917]},"type":"city"}
{"name":"Yining/Qulja","geometry":{"type":"Point","coordinates":[81.27477970000001,43.9052027]},"type":"city"}
{"name":"Goiânia","geometry":{"type":"Point","coordinates":[-49.2532691,-16.680882]},"type":"city"}
{"name":"Aracaju","geometry":{"type":"Point","coordinates":[-37.0774655,-10.9162061]},"type":"city"}
{"name":"Maceió","geometry":{"type":"Point","coordinates":[-35.7339264,-9.6476843]},"type":"city"}
{"name":"Saitama","geometry":{"type":"Point","coordinates":[139.6457957,35.8616402]},"type":"city"}
{"name":"Sargodha","geometry":{"type":"Point","coordinates":[72.6782574,32.0898005]},"type":"city"}
{"name":"Chiniot","geometry":{"type":"Point","coordinates":[72.9800348,31.7219942]},"type":"city"}
{"name":"Aksu/Akesu","geometry":{"type":"Point","coordinates":[80.2734726,41.165587]},"type":"city"}
{"name":"Ankang","geometry":{"type":"Point","coordinates":[108.9903977,32.7330178]},"type":"prefecture"}
{"name":"Anqing","geometry":{"type":"Point","coordinates":[117.1098142,30.5347276]},"type":"city"}
{"name":"Anshun","geometry":{"type":"Point","coordinates":[105.92778050000001,26.2496958]},"type":"city"}
{"name":"Anshan","geometry":{"type":"Point","coordinates":[122.99004420000001,41.1075692]},"type":"city"}
{"name":"Anyang","geometry":{"type":"Point","coordinates":[114.33633,36.1023552]},"type":"city"}
{"name":"Artux/Atushi","geometry":{"type":"Point","coordinates":[76.1698676,39.7133298]},"type":"city"}
{"name":"Baoan District","geometry":{"type":"Point","coordinates":[113.8789746,22.5580925]},"type":"suburb"}
{"name":"Baotou","geometry":{"type":"Point","coordinates":[109.8303243,40.660201]},"type":"city"}
{"name":"Baiyin","geometry":{"type":"Point","coordinates":[104.1338979,36.5458781]},"type":"city"}
{"name":"Baoji","geometry":{"type":"Point","coordinates":[107.23321840000001,34.3645811]},"type":"city"}
{"name":"Baicheng","geometry":{"type":"Point","coordinates":[122.865279,45.6098635]},"type":"city"}
{"name":"Beihai","geometry":{"type":"Point","coordinates":[109.1068061,21.4799081]},"type":"city"}
{"name":"Bayannur","geometry":{"type":"Point","coordinates":[107.3977117,40.7560985]},"type":"city"}
{"name":"Benxi","geometry":{"type":"Point","coordinates":[123.7594197,41.2922207]},"type":"city"}
{"name":"Benxi Manchu","geometry":{"type":"Point","coordinates":[124.1245195,41.3005524]},"type":"city"}
{"name":"Cangzhou","geometry":{"type":"Point","coordinates":[116.85115970000001,38.3042796]},"type":"city"}
{"name":"Bortala/Bole","geometry":{"type":"Point","coordinates":[82.05025540000001,44.8749688]},"type":"city"}
{"name":"Binzhou","geometry":{"type":"Point","coordinates":[117.9647262,37.3821206]},"type":"city"}
{"name":"Changji/Sanji","geometry":{"type":"Point","coordinates":[87.3166682,44.0166615]},"type":"city"}
{"name":"Bengbu","geometry":{"type":"Point","coordinates":[117.3825673,32.9176422]},"type":"city"}
{"name":"Changde","geometry":{"type":"Point","coordinates":[111.6927445,29.0340526]},"type":"city"}
{"name":"Changchun","geometry":{"type":"Point","coordinates":[125.3178222,43.8844498]},"type":"city"}
{"name":"Baise","geometry":{"type":"Point","coordinates":[106.6153867,23.9051104]},"type":"city"}
{"name":"Chaozhou","geometry":{"type":"Point","coordinates":[116.6205482,23.6566146]},"type":"city"}
{"name":"Changzhi City","geometry":{"type":"Point","coordinates":[113.0985394,36.1829336]},"type":"city"}
{"name":"Chenzhou","geometry":{"type":"Point","coordinates":[113.02968290000001,25.7949974]},"type":"city"}
{"name":"Chengdu","geometry":{"type":"Point","coordinates":[104.06127830000001,30.6765553]},"type":"city"}
{"name":"Chaoyang","geometry":{"type":"Point","coordinates":[120.4390738,41.5754767]},"type":"city"}
{"name":"Changzhou","geometry":{"type":"Point","coordinates":[119.9692045,31.8129864]},"type":"city"}
{"name":"Chuzhou","geometry":{"type":"Point","coordinates":[118.3280486,32.2545901]},"type":"city"}
{"name":"Lucheng","geometry":{"type":"Point","coordinates":[101.5440836,25.0359599]},"type":"city"}
{"name":"Chifeng","geometry":{"type":"Point","coordinates":[118.9426131,42.2799929]},"type":"city"}
{"name":"Daqing","geometry":{"type":"Point","coordinates":[125.1014811,46.5969028]},"type":"city"}
{"name":"Datong","geometry":{"type":"Point","coordinates":[113.29524280000001,40.0922886]},"type":"city"}
{"name":"Dazhou","geometry":{"type":"Point","coordinates":[107.50275640000001,31.216036]},"type":"city"}
{"name":"Dezhou","geometry":{"type":"Point","coordinates":[116.305416,37.4486676]},"type":"city"}
{"name":"Dandong","geometry":{"type":"Point","coordinates":[124.3863404,40.128668]},"type":"city"}
{"name":"Ezhou","geometry":{"type":"Point","coordinates":[114.87842970000001,30.4079084]},"type":"city"}
{"name":"Dongying","geometry":{"type":"Point","coordinates":[118.66893490000001,37.4334738]},"type":"city"}
{"name":"Dingxi","geometry":{"type":"Point","coordinates":[104.6165316,35.5776859]},"type":"city"}
{"name":"Zhangjiajie","geometry":{"type":"Point","coordinates":[110.4816207,29.1299011]},"type":"city"}
{"name":"Fanchang","geometry":{"type":"Point","coordinates":[118.20006830000001,31.0855894]},"type":"city"}
{"name":"Foshan","geometry":{"type":"Point","coordinates":[113.11463350000001,23.0247687]},"type":"city"}
{"name":"Fuzhou","geometry":{"type":"Point","coordinates":[116.353245,27.9957951]},"type":"city"}
{"name":"Fuzhou","geometry":{"type":"Point","coordinates":[119.30338370000001,26.0797124]},"type":"city"}
{"name":"Fuyang","geometry":{"type":"Point","coordinates":[115.8090001,32.8926763]},"type":"city"}
{"name":"Fushun","geometry":{"type":"Point","coordinates":[123.9479581,41.8866162]},"type":"city"}
{"name":"Ganzhou","geometry":{"type":"Point","coordinates":[114.93463960000001,25.8563093]},"type":"city"}
{"name":"Guiyang","geometry":{"type":"Point","coordinates":[106.7052544,26.5814112]},"type":"city"}
{"name":"Guilin","geometry":{"type":"Point","coordinates":[110.29123310000001,25.2815358]},"type":"city"}
{"name":"Fuxin","geometry":{"type":"Point","coordinates":[121.6452868,42.0151733]},"type":"city"}
{"name":"Guyuan","geometry":{"type":"Point","coordinates":[106.28515990000001,36.0106323]},"type":"city"}
{"name":"Guangzhou","geometry":{"type":"Point","coordinates":[113.25929450000001,23.1301964]},"type":"city"}
{"name":"Gu'an","geometry":{"type":"Point","coordinates":[116.2971492,39.4442832]},"type":"city"}
{"name":"Hanzhong","geometry":{"type":"Point","coordinates":[107.01844360000001,33.0692819]},"type":"city"}
{"name":"Hegang","geometry":{"type":"Point","coordinates":[130.2836718,47.3355856]},"type":"city"}
{"name":"Hebi","geometry":{"type":"Point","coordinates":[114.2915957,35.7479577]},"type":"city"}
{"name":"Haikou","geometry":{"type":"Point","coordinates":[110.3409936,20.0423626]},"type":"city"}
{"name":"Yizhou","geometry":{"type":"Point","coordinates":[93.51347670000001,42.826072]},"type":"suburb"}
{"name":"Hangzhou","geometry":{"type":"Point","coordinates":[120.2052342,30.2489634]},"type":"city"}
{"name":"Hami","geometry":{"type":"Point","coordinates":[93.5127738,42.8353592]},"type":"city"}
{"name":"Handan","geometry":{"type":"Point","coordinates":[114.483333,36.583333]},"type":"city"}
{"name":"Hotan/Hetian","geometry":{"type":"Point","coordinates":[79.9196814,37.1144637]},"type":"city"}
{"name":"Huainan","geometry":{"type":"Point","coordinates":[117.0130019,32.5866826]},"type":"city"}
{"name":"Houma","geometry":{"type":"Point","coordinates":[111.362708,35.6254159]},"type":"city"}
{"name":"Huai'an","geometry":{"type":"Point","coordinates":[119.0211943,33.5897018]},"type":"city"}
{"name":"Hengshui","geometry":{"type":"Point","coordinates":[115.6677229,37.7364305]},"type":"city"}
{"name":"Huaihua","geometry":{"type":"Point","coordinates":[109.96415660000001,27.554599]},"type":"city"}
{"name":"Hohhot","geometry":{"type":"Point","coordinates":[111.67307880000001,40.8337963]},"type":"city"}
{"name":"Heze","geometry":{"type":"Point","coordinates":[115.44647610000001,35.2477266]},"type":"city"}
{"name":"Heyuan","geometry":{"type":"Point","coordinates":[114.692015,23.7379776]},"type":"city"}
{"name":"Huaibei","geometry":{"type":"Point","coordinates":[116.7928916,33.9566098]},"type":"city"}
{"name":"Baishan","geometry":{"type":"Point","coordinates":[126.4200169,41.9316387]},"type":"city"}
{"name":"Huocheng/Korgas","geometry":{"type":"Point","coordinates":[80.87661340000001,44.0546801]},"type":"city"}
{"name":"Huizhou","geometry":{"type":"Point","coordinates":[114.4141105,23.1060862]},"type":"city"}
{"name":"Huangshan","geometry":{"type":"Point","coordinates":[118.3215698,29.7125012]},"type":"city"}
{"name":"Huanren Manchu Autonomous County","geometry":{"type":"Point","coordinates":[125.3490074,41.2692381]},"type":"city"}
{"name":"Huangshi","geometry":{"type":"Point","coordinates":[115.0670135,30.2134399]},"type":"city"}
{"name":"Huanggang","geometry":{"type":"Point","coordinates":[114.8653378,30.4494243]},"type":"city"}
{"name":"Jiaozuo","geometry":{"type":"Point","coordinates":[113.2533977,35.2075729]},"type":"city"}
{"name":"Ji'an","geometry":{"type":"Point","coordinates":[114.9835744,27.1144788]},"type":"city"}
{"name":"Jinhua","geometry":{"type":"Point","coordinates":[119.64864870000001,29.1080344]},"type":"city"}
{"name":"Jīngzhōu City","geometry":{"type":"Point","coordinates":[112.18809580000001,30.3543831]},"type":"city"}
{"name":"Jingmen","geometry":{"type":"Point","coordinates":[112.1973384,31.0348589]},"type":"city"}
{"name":"Jining","geometry":{"type":"Point","coordinates":[116.5849266,35.4125047]},"type":"city"}
{"name":"Jinchang","geometry":{"type":"Point","coordinates":[102.185973,38.5206719]},"type":"city"}
{"name":"Jincheng","geometry":{"type":"Point","coordinates":[112.85198620000001,35.493783]},"type":"city"}
{"name":"Jinan","geometry":{"type":"Point","coordinates":[117.11400420000001,36.6507007]},"type":"city"}
{"name":"Jilin","geometry":{"type":"Point","coordinates":[126.5434936,43.8357587]},"type":"city"}
{"name":"Jingdezhen","geometry":{"type":"Point","coordinates":[117.204121,29.2909294]},"type":"city"}
{"name":"Kelamayi/Karamay","geometry":{"type":"Point","coordinates":[84.8658499,45.5983043]},"type":"county"}
{"name":"Kaifeng","geometry":{"type":"Point","coordinates":[114.3472038,34.7961106]},"type":"city"}
{"name":"Kaili","geometry":{"type":"Point","coordinates":[107.97621210000001,26.5884307]},"type":"city"}
{"name":"Jiujiang","geometry":{"type":"Point","coordinates":[115.99131340000001,29.7275361]},"type":"city"}
{"name":"Jishou","geometry":{"type":"Point","coordinates":[109.69507820000001,28.2637217]},"type":"city"}
{"name":"Jinzhou","geometry":{"type":"Point","coordinates":[121.1194219,41.108528]},"type":"city"}
{"name":"Tongliao","geometry":{"type":"Point","coordinates":[122.2497308,43.6392011]},"type":"city"}
{"name":"Jinzhong","geometry":{"type":"Point","coordinates":[112.73834140000001,37.6866796]},"type":"city"}
{"name":"Leshan","geometry":{"type":"Point","coordinates":[103.7619922,29.5608755]},"type":"city"}
{"name":"Jiaxing","geometry":{"type":"Point","coordinates":[120.7471637,30.7633441]},"type":"city"}
{"name":"Langfang","geometry":{"type":"Point","coordinates":[116.6997446,39.5128345]},"type":"city"}
{"name":"Lengshuitan","geometry":{"type":"Point","coordinates":[111.5872813,26.4640619]},"type":"city"}
{"name":"Huludao","geometry":{"type":"Point","coordinates":[120.8404789,40.7515443]},"type":"city"}
{"name":"Laibin","geometry":{"type":"Point","coordinates":[109.229512,23.7364519]},"type":"city"}
{"name":"Láiwú","geometry":{"type":"Point","coordinates":[117.6699251,36.2138623]},"type":"city"}
{"name":"Korla/Ku'erle","geometry":{"type":"Point","coordinates":[86.173541,41.7238743]},"type":"city"}
{"name":"Kashi/Kashgar","geometry":{"type":"Point","coordinates":[75.98497610000001,39.4722799]},"type":"city"}
{"name":"Liuzhou","geometry":{"type":"Point","coordinates":[109.4066186,24.3213044]},"type":"city"}
{"name":"Lishui","geometry":{"type":"Point","coordinates":[119.9184297,28.4704064]},"type":"city"}
{"name":"Linxia","geometry":{"type":"Point","coordinates":[103.21079920000001,35.5959451]},"type":"city"}
{"name":"Longnan","geometry":{"type":"Point","coordinates":[104.9313723,33.387124]},"type":"city"}
{"name":"Longyan","geometry":{"type":"Point","coordinates":[117.0151162,25.0974393]},"type":"city"}
{"name":"Lianyungang","geometry":{"type":"Point","coordinates":[119.1695305,34.6092633]},"type":"city"}
{"name":"Lincang","geometry":{"type":"Point","coordinates":[100.08900460000001,23.8789593]},"type":"city"}
{"name":"Linfen","geometry":{"type":"Point","coordinates":[111.381767,36.229963]},"type":"region"}
{"name":"Liaocheng","geometry":{"type":"Point","coordinates":[115.9642007,36.4441808]},"type":"city"}
{"name":"Linyi","geometry":{"type":"Point","coordinates":[118.3506988,35.1032403]},"type":"city"}
{"name":"Liaoyuan","geometry":{"type":"Point","coordinates":[125.1486485,42.8951884]},"type":"city"}
{"name":"Meizhou","geometry":{"type":"Point","coordinates":[116.11774360000001,24.3053552]},"type":"city"}
{"name":"Yongzhou","geometry":{"type":"Point","coordinates":[111.5922491,26.4511303]},"type":"city"}
{"name":"Mianyang","geometry":{"type":"Point","coordinates":[104.750108,31.458932]},"type":"city"}
{"name":"Minhe Hui and Tu Autonomous County","geometry":{"type":"Point","coordinates":[102.8058806,36.3290875]},"type":"city"}
{"name":"Loudi","geometry":{"type":"Point","coordinates":[112.0021701,27.7343117]},"type":"city"}
{"name":"Lu'an","geometry":{"type":"Point","coordinates":[116.51422520000001,31.7383487]},"type":"city"}
{"name":"Lüliang","geometry":{"type":"Point","coordinates":[111.1444891,37.5200946]},"type":"city"}
{"name":"Liupanshui","geometry":{"type":"Point","coordinates":[104.8393163,26.5927706]},"type":"city"}
{"name":"Luoyang","geometry":{"type":"Point","coordinates":[112.4209629,34.6556873]},"type":"city"}
{"name":"Luohe","geometry":{"type":"Point","coordinates":[114.0285163,33.5720554]},"type":"city"}
{"name":"Luzhou","geometry":{"type":"Point","coordinates":[105.4383176,28.8743249]},"type":"city"}
{"name":"Ma'anshan","geometry":{"type":"Point","coordinates":[118.50483770000001,31.6866105]},"type":"city"}
{"name":"Ningbo","geometry":{"type":"Point","coordinates":[121.5442007,29.8753006]},"type":"city"}
{"name":"Pingdingshan","geometry":{"type":"Point","coordinates":[113.2981436,33.7374744]},"type":"city"}
{"name":"Panzhihua","geometry":{"type":"Point","coordinates":[101.71792760000001,26.5860102]},"type":"city"}
{"name":"Ningde","geometry":{"type":"Point","coordinates":[119.5224895,26.6655699]},"type":"city"}
{"name":"Panjin","geometry":{"type":"Point","coordinates":[122.0655098,41.1169056]},"type":"city"}
{"name":"Nanjing","geometry":{"type":"Point","coordinates":[118.79164580000001,32.0609736]},"type":"city"}
{"name":"Nanchong","geometry":{"type":"Point","coordinates":[106.08355390000001,30.7955696]},"type":"city"}
{"name":"Nanchang","geometry":{"type":"Point","coordinates":[115.8885987,28.6792695]},"type":"city"}
{"name":"Nantong","geometry":{"type":"Point","coordinates":[120.8904588,31.9827896]},"type":"city"}
{"name":"Nanyang","geometry":{"type":"Point","coordinates":[112.52926930000001,33.0010496]},"type":"city"}
{"name":"Nanping","geometry":{"type":"Point","coordinates":[118.173639,26.6417374]},"type":"city"}
{"name":"Qingdao","geometry":{"type":"Point","coordinates":[120.3497193,36.0895093]},"type":"city"}
{"name":"Qingyuan","geometry":{"type":"Point","coordinates":[113.05059940000001,23.6832984]},"type":"city"}
{"name":"Qingyang","geometry":{"type":"Point","coordinates":[107.64984360000001,35.7288923]},"type":"city"}
{"name":"Pishan/Guma","geometry":{"type":"Point","coordinates":[78.2791976,37.6181668]},"type":"city"}
{"name":"Pingliang","geometry":{"type":"Point","coordinates":[106.67985440000001,35.5410175]},"type":"city"}
{"name":"Qitaihe","geometry":{"type":"Point","coordinates":[131.0074987,45.7700345]},"type":"city"}
{"name":"Qiqihar","geometry":{"type":"Point","coordinates":[123.91159440000001,47.3527088]},"type":"city"}
{"name":"Chamdo","geometry":{"type":"Point","coordinates":[97.2368352,30.778077]},"type":"region"}
{"name":"Putian","geometry":{"type":"Point","coordinates":[119.0074625,25.4342199]},"type":"city"}
{"name":"Shaoyang","geometry":{"type":"Point","coordinates":[111.4589576,27.2393845]},"type":"city"}
{"name":"Shaoxing","geometry":{"type":"Point","coordinates":[120.576854,29.9992425]},"type":"city"}
{"name":"Karub","geometry":{"type":"Point","coordinates":[97.2747216,31.4262689]},"type":"county"}
{"name":"Shanghai","geometry":{"type":"Point","coordinates":[121.46917490000001,31.2322735]},"type":"state"}
{"name":"Shaoguan","geometry":{"type":"Point","coordinates":[113.59235640000001,24.8134099]},"type":"city"}
{"name":"Shangqiu","geometry":{"type":"Point","coordinates":[115.6508622,34.417097]},"type":"city"}
{"name":"Shantou","geometry":{"type":"Point","coordinates":[116.6775918,23.356377]},"type":"city"}
{"name":"Shangluo","geometry":{"type":"Point","coordinates":[109.93538760000001,33.8678555]},"type":"city"}
{"name":"Shangrao","geometry":{"type":"Point","coordinates":[117.9724453,28.450122]},"type":"city"}
{"name":"Sanmenxia","geometry":{"type":"Point","coordinates":[111.1908398,34.7678842]},"type":"city"}
{"name":"Rizhao","geometry":{"type":"Point","coordinates":[119.5214512,35.4150703]},"type":"city"}
{"name":"Quanzhou","geometry":{"type":"Point","coordinates":[118.5851458,24.9038801]},"type":"city"}
{"name":"Sanming","geometry":{"type":"Point","coordinates":[117.6038491,26.2367951]},"type":"city"}
{"name":"Quzhou","geometry":{"type":"Point","coordinates":[118.8648514,28.9657792]},"type":"city"}
{"name":"Tangshan","geometry":{"type":"Point","coordinates":[118.1739275,39.6293065]},"type":"city"}
{"name":"Taiyuan","geometry":{"type":"Point","coordinates":[112.5561744,37.8561856]},"type":"city"}
{"name":"Taizhou","geometry":{"type":"Point","coordinates":[119.9117284,32.4849554]},"type":"city"}
{"name":"Suqian","geometry":{"type":"Point","coordinates":[118.2945375,33.9564492]},"type":"city"}
{"name":"Suizhou","geometry":{"type":"Point","coordinates":[113.3644933,31.7161169]},"type":"city"}
{"name":"Suzhou","geometry":{"type":"Point","coordinates":[116.95880620000001,33.6482366]},"type":"city"}
{"name":"Shuangyashan","geometry":{"type":"Point","coordinates":[131.1524464,46.6440029]},"type":"county"}
{"name":"Suihua","geometry":{"type":"Point","coordinates":[126.9870127,46.6420316]},"type":"city"}
{"name":"Siping","geometry":{"type":"Point","coordinates":[124.3443749,43.1641529]},"type":"city"}
{"name":"Tai'an","geometry":{"type":"Point","coordinates":[117.08093160000001,36.2002968]},"type":"city"}
{"name":"Shiyan","geometry":{"type":"Point","coordinates":[110.7782466,32.6420675]},"type":"city"}
{"name":"Shizuishan","geometry":{"type":"Point","coordinates":[106.3610612,39.0151348]},"type":"city"}
{"name":"Weihai","geometry":{"type":"Point","coordinates":[122.1152445,37.5122216]},"type":"city"}
{"name":"Shihezi","geometry":{"type":"Point","coordinates":[86.0528381,44.298891]},"type":"city"}
{"name":"Pu'er","geometry":{"type":"Point","coordinates":[100.9707544,22.77326]},"type":"city"}
{"name":"Weinan","geometry":{"type":"Point","coordinates":[109.45728480000001,34.5037437]},"type":"city"}
{"name":"Ürümqi/Wulumuqi","geometry":{"type":"Point","coordinates":[87.6140244,43.7959127]},"type":"city"}
{"name":"Wusu/Sixw","geometry":{"type":"Point","coordinates":[84.71114750000001,44.4172357]},"type":"city"}
{"name":"Turpan/Tulufan","geometry":{"type":"Point","coordinates":[89.1816874,42.9424757]},"type":"city"}
{"name":"Tongren","geometry":{"type":"Point","coordinates":[109.18383480000001,27.7223474]},"type":"city"}
{"name":"Tonghua","geometry":{"type":"Point","coordinates":[125.91704550000001,41.7225544]},"type":"city"}
{"name":"Tongling","geometry":{"type":"Point","coordinates":[117.8089039,30.9345628]},"type":"city"}
{"name":"Tongchuan","geometry":{"type":"Point","coordinates":[108.94617810000001,34.9034852]},"type":"city"}
{"name":"Tianshui","geometry":{"type":"Point","coordinates":[105.70629210000001,34.5797531]},"type":"city"}
{"name":"Ulanqab","geometry":{"type":"Point","coordinates":[113.1315646,40.9902685]},"type":"city"}
{"name":"Tieling","geometry":{"type":"Point","coordinates":[123.83944690000001,42.2895507]},"type":"city"}
{"name":"Xi'an","geometry":{"type":"Point","coordinates":[108.9424252,34.2660171]},"type":"city"}
{"name":"Xia","geometry":{"type":"Point","coordinates":[111.21449480000001,35.1417802]},"type":"city"}
{"name":"Xiaogan","geometry":{"type":"Point","coordinates":[113.90756390000001,30.9187372]},"type":"city"}
{"name":"Xianning","geometry":{"type":"Point","coordinates":[114.2760435,29.8757965]},"type":"city"}
{"name":"Xianyang","geometry":{"type":"Point","coordinates":[108.7234362,34.3075655]},"type":"city"}
{"name":"Tianjin","geometry":{"type":"Point","coordinates":[117.1980785,39.1235635]},"type":"city"}
{"name":"Xiangyang","geometry":{"type":"Point","coordinates":[112.14637590000001,32.0189235]},"type":"city"}
{"name":"Xiamen","geometry":{"type":"Point","coordinates":[118.07453910000001,24.4586961]},"type":"city"}
{"name":"Xiangtan","geometry":{"type":"Point","coordinates":[112.903746,27.8579746]},"type":"city"}
{"name":"Wuhu","geometry":{"type":"Point","coordinates":[118.42774770000001,31.3536127]},"type":"city"}
{"name":"Wenzhou","geometry":{"type":"Point","coordinates":[120.6558736,28.0152686]},"type":"city"}
{"name":"Wuhan","geometry":{"type":"Point","coordinates":[114.2708911,30.5742793]},"type":"city"}
{"name":"Yichun","geometry":{"type":"Point","coordinates":[114.37725010000001,27.7971551]},"type":"city"}
{"name":"Yibin","geometry":{"type":"Point","coordinates":[104.6353116,28.7657927]},"type":"city"}
{"name":"Yichun","geometry":{"type":"Point","coordinates":[128.8799956,47.7211461]},"type":"city"}
{"name":"Wuwei","geometry":{"type":"Point","coordinates":[102.6359886,37.928881]},"type":"city"}
{"name":"Yanji","geometry":{"type":"Point","coordinates":[129.5008425,42.8888552]},"type":"city"}
{"name":"Wuzhong","geometry":{"type":"Point","coordinates":[106.1961109,37.9822616]},"type":"city"}
{"name":"Yingshan","geometry":{"type":"Point","coordinates":[106.57517940000001,31.0790943]},"type":"city"}
{"name":"Yingkou","geometry":{"type":"Point","coordinates":[122.2357736,40.6747155]},"type":"city"}
{"name":"Yantai","geometry":{"type":"Point","coordinates":[121.389463,37.5340488]},"type":"city"}
{"name":"Yingtan","geometry":{"type":"Point","coordinates":[117.0278246,28.2428093]},"type":"city"}
{"name":"Yongde","geometry":{"type":"Point","coordinates":[99.2573316,24.0276877]},"type":"city"}
{"name":"Yongchang","geometry":{"type":"Point","coordinates":[101.97109080000001,38.2446955]},"type":"city"}
{"name":"Yiyang","geometry":{"type":"Point","coordinates":[112.32117830000001,28.5929656]},"type":"city"}
{"name":"Xining","geometry":{"type":"Point","coordinates":[101.7729898,36.6219037]},"type":"city"}
{"name":"Xingtai","geometry":{"type":"Point","coordinates":[114.4921929,37.0658469]},"type":"city"}
{"name":"Xinxiang","geometry":{"type":"Point","coordinates":[113.8780633,35.2992063]},"type":"city"}
{"name":"Xinyang","geometry":{"type":"Point","coordinates":[114.06765960000001,32.127372]},"type":"city"}
{"name":"Xuchang","geometry":{"type":"Point","coordinates":[113.8237291,34.0316195]},"type":"city"}
{"name":"Xinyu","geometry":{"type":"Point","coordinates":[114.9332852,27.8007391]},"type":"city"}
{"name":"Xingyi","geometry":{"type":"Point","coordinates":[104.8974498,25.0917444]},"type":"city"}
{"name":"Yangjiang","geometry":{"type":"Point","coordinates":[111.95935,21.8526328]},"type":"city"}
{"name":"Xuancheng","geometry":{"type":"Point","coordinates":[118.7540167,30.9412541]},"type":"city"}
{"name":"Yan'an","geometry":{"type":"Point","coordinates":[109.48407320000001,36.5836388]},"type":"city"}
{"name":"Yangquan","geometry":{"type":"Point","coordinates":[113.5730276,37.85862]},"type":"city"}
{"name":"Yangzhou","geometry":{"type":"Point","coordinates":[119.4365759,32.3926973]},"type":"city"}
{"name":"Zhumadian","geometry":{"type":"Point","coordinates":[114.0164565,33.0115818]},"type":"city"}
{"name":"Yancheng","geometry":{"type":"Point","coordinates":[120.1349541,33.3939707]},"type":"city"}
{"name":"Zhuzhou","geometry":{"type":"Point","coordinates":[113.1482168,27.8394983]},"type":"city"}
{"name":"Zhoushan","geometry":{"type":"Point","coordinates":[122.2030363,29.9873344]},"type":"city"}
{"name":"Zibo","geometry":{"type":"Point","coordinates":[118.0444472,36.8047833]},"type":"city"}
{"name":"Zigong","geometry":{"type":"Point","coordinates":[104.7765295,29.3367271]},"type":"city"}
{"name":"Yichang","geometry":{"type":"Point","coordinates":[111.27501810000001,30.7031196]},"type":"city"}
{"name":"Zunyi","geometry":{"type":"Point","coordinates":[106.9232185,27.7293815]},"type":"city"}
{"name":"Xinzhou","geometry":{"type":"Point","coordinates":[112.730463,38.4139173]},"type":"city"}
{"name":"Yueyang","geometry":{"type":"Point","coordinates":[113.095513,29.3691365]},"type":"city"}
{"name":"Shuozhou","geometry":{"type":"Point","coordinates":[112.43007,39.3183091]},"type":"city"}
{"name":"Yulin","geometry":{"type":"Point","coordinates":[109.74757670000001,38.2951481]},"type":"city"}
{"name":"Zhuhai","geometry":{"type":"Point","coordinates":[113.5462439,22.2305196]},"type":"city"}
{"name":"Yuncheng","geometry":{"type":"Point","coordinates":[111.002141,35.027637]},"type":"city"}
{"name":"Yulin","geometry":{"type":"Point","coordinates":[110.1498186,22.6354097]},"type":"city"}
{"name":"Yuxi","geometry":{"type":"Point","coordinates":[102.5397072,24.3578557]},"type":"city"}
{"name":"Zhangjiakou","geometry":{"type":"Point","coordinates":[114.8798804,40.7664001]},"type":"city"}
{"name":"Zepu/Poskam","geometry":{"type":"Point","coordinates":[77.2740038,38.1861264]},"type":"city"}
{"name":"Zhangzhou","geometry":{"type":"Point","coordinates":[117.6496027,24.5081859]},"type":"city"}
{"name":"Zaoshuang","geometry":{"type":"Point","coordinates":[117.3178371,34.8093451]},"type":"city"}
{"name":"Zhangye","geometry":{"type":"Point","coordinates":[100.4556326,38.9365134]},"type":"city"}
{"name":"Zhanjiang","geometry":{"type":"Point","coordinates":[110.4045975,21.2021916]},"type":"city"}
{"name":"Zhengzhou","geometry":{"type":"Point","coordinates":[113.6524076,34.7591877]},"type":"city"}
{"name":"Zhenjiang","geometry":{"type":"Point","coordinates":[119.458012,32.2139599]},"type":"city"}
{"name":"Zhongshan","geometry":{"type":"Point","coordinates":[113.3656141,22.5213807]},"type":"city"}
{"name":"Zhaoqing","geometry":{"type":"Point","coordinates":[112.4728451,23.0515551]},"type":"city"}
{"name":"Ziyang","geometry":{"type":"Point","coordinates":[104.64811440000001,30.1235983]},"type":"city"}
{"name":"Zhoukou","geometry":{"type":"Point","coordinates":[114.6423617,33.6306299]},"type":"city"}
{"name":"Guang'an","geometry":{"type":"Point","coordinates":[106.63319580000001,30.4591677]},"type":"city"}
{"name":"Bazhong","geometry":{"type":"Point","coordinates":[106.754751,31.8590183]},"type":"city"}
{"name":"Guangyuan","geometry":{"type":"Point","coordinates":[105.8563402,32.4329637]},"type":"city"}
{"name":"Meishan","geometry":{"type":"Point","coordinates":[103.8284394,30.0474159]},"type":"city"}
{"name":"Suining","geometry":{"type":"Point","coordinates":[105.574542,30.5061493]},"type":"city"}
{"name":"Deyang","geometry":{"type":"Point","coordinates":[104.39013,31.1244028]},"type":"city"}
{"name":"Zhongwei","geometry":{"type":"Point","coordinates":[105.1690817,37.5062172]},"type":"city"}
{"name":"Yinchuan","geometry":{"type":"Point","coordinates":[106.2116014,38.4829194]},"type":"city"}
{"name":"Yulong","geometry":{"type":"Point","coordinates":[100.2352936,26.8260494]},"type":"city"}
{"name":"Chizhou","geometry":{"type":"Point","coordinates":[117.4859885,30.6671088]},"type":"city"}
{"name":"Bozhou","geometry":{"type":"Point","coordinates":[115.772453,33.8579594]},"type":"city"}
{"name":"Longgang District","geometry":{"type":"Point","coordinates":[114.2426346,22.7230879]},"type":"suburb"}
{"name":"Suzhou","geometry":{"type":"Point","coordinates":[120.5810725,31.3016935]},"type":"city"}
{"name":"Xigong","geometry":{"type":"Point","coordinates":[112.4331588,34.6782279]},"type":"suburb"}
{"name":"Puyang","geometry":{"type":"Point","coordinates":[115.02340710000001,35.7631348]},"type":"city"}
{"name":"Songyuan","geometry":{"type":"Point","coordinates":[124.81125530000001,45.1437772]},"type":"city"}
{"name":"Shanwei","geometry":{"type":"Point","coordinates":[115.35412590000001,22.7752816]},"type":"city"}
{"name":"Luohu District","geometry":{"type":"Point","coordinates":[114.1260302,22.5514086]},"type":"suburb"}
{"name":"Cotabato","geometry":{"type":"Point","coordinates":[124.23517140000001,7.1970344]},"type":"city"}
{"name":"Samarkand","geometry":{"type":"Point","coordinates":[66.9758026,39.6547869]},"type":"city"}
{"name":"Qarshi","geometry":{"type":"Point","coordinates":[65.79279480000001,38.83998]},"type":"city"}
{"name":"Nukus","geometry":{"type":"Point","coordinates":[59.6052217,42.4585258]},"type":"city"}
{"name":"Fergana","geometry":{"type":"Point","coordinates":[71.7890479,40.3791469]},"type":"city"}
{"name":"Namangan","geometry":{"type":"Point","coordinates":[71.67262380000001,40.9996482]},"type":"city"}
{"name":"Thiruvananthapuram","geometry":{"type":"Point","coordinates":[76.9570481,8.5058909]},"type":"city"}
{"name":"Thanjavur","geometry":{"type":"Point","coordinates":[79.1381497,10.7860267]},"type":"city"}
{"name":"Coimbatore","geometry":{"type":"Point","coordinates":[76.9628425,11.0018115]},"type":"city"}
{"name":"Mangaluru","geometry":{"type":"Point","coordinates":[74.8430082,12.8698101]},"type":"city"}
{"name":"Shivamogga","geometry":{"type":"Point","coordinates":[75.569737,13.9311723]},"type":"city"}
{"name":"Vijayapura","geometry":{"type":"Point","coordinates":[75.7175387,16.8269911]},"type":"city"}
{"name":"Sangli","geometry":{"type":"Point","coordinates":[74.59488850000001,16.8502534]},"type":"city"}
{"name":"Kalaburagi","geometry":{"type":"Point","coordinates":[76.8334228,17.3310003]},"type":"city"}
{"name":"Visakhapatnam","geometry":{"type":"Point","coordinates":[83.30128420000001,17.7231276]},"type":"city"}
{"name":"Latur","geometry":{"type":"Point","coordinates":[76.562087,18.3983393]},"type":"city"}
{"name":"Hyderabad","geometry":{"type":"Point","coordinates":[78.4746286,17.3616079]},"type":"city"}
{"name":"Solapur","geometry":{"type":"Point","coordinates":[75.8975502,17.6715272]},"type":"city"}
{"name":"Jalna","geometry":{"type":"Point","coordinates":[75.8824868,19.8409163]},"type":"city"}
{"name":"Aurangabad","geometry":{"type":"Point","coordinates":[75.3277803,19.8739536]},"type":"city"}
{"name":"Chandrapur","geometry":{"type":"Point","coordinates":[79.2986673,19.9508161]},"type":"city"}
{"name":"Nashik","geometry":{"type":"Point","coordinates":[73.7902364,20.0112475]},"type":"city"}
{"name":"Cuttack","geometry":{"type":"Point","coordinates":[85.8792,20.4686]},"type":"city"}
{"name":"Malegaon","geometry":{"type":"Point","coordinates":[74.5242544,20.5575459]},"type":"city"}
{"name":"Akola","geometry":{"type":"Point","coordinates":[77.002632,20.7116604]},"type":"city"}
{"name":"Dhule","geometry":{"type":"Point","coordinates":[74.7732,20.898]},"type":"city"}
{"name":"Bilaspur","geometry":{"type":"Point","coordinates":[82.1476475,22.0785627]},"type":"city"}
{"name":"Kolkata","geometry":{"type":"Point","coordinates":[88.3476023,22.5677459]},"type":"city"}
{"name":"Indore","geometry":{"type":"Point","coordinates":[75.8682103,22.7203851]},"type":"city"}
{"name":"Ahmedabad","geometry":{"type":"Point","coordinates":[72.57970680000001,23.0216238]},"type":"city"}
{"name":"Bhopal","geometry":{"type":"Point","coordinates":[77.3962718,23.2530923]},"type":"city"}
{"name":"Jabalpur","geometry":{"type":"Point","coordinates":[79.9497702,23.1608938]},"type":"city"}
{"name":"Aizawl","geometry":{"type":"Point","coordinates":[92.7209297,23.7414092]},"type":"city"}
{"name":"Agartala","geometry":{"type":"Point","coordinates":[91.2823821,23.8312377]},"type":"city"}
{"name":"Deoghar","geometry":{"type":"Point","coordinates":[86.6977106,24.4904945]},"type":"city"}
{"name":"Gaya","geometry":{"type":"Point","coordinates":[85.0079563,24.7964355]},"type":"city"}
{"name":"Rewa, Madhya Pradesh","geometry":{"type":"Point","coordinates":[81.2934,24.5359]},"type":"city"}
{"name":"Sasaram","geometry":{"type":"Point","coordinates":[84.0148733,24.9509656]},"type":"city"}
{"name":"Malda","geometry":{"type":"Point","coordinates":[88.13984830000001,25.0057449]},"type":"city"}
{"name":"Kota","geometry":{"type":"Point","coordinates":[75.8574194,25.1737019]},"type":"city"}
{"name":"Bhagalpur","geometry":{"type":"Point","coordinates":[86.9828131,25.2494829]},"type":"city"}
{"name":"Bhilwara","geometry":{"type":"Point","coordinates":[74.636,25.348]},"type":"city"}
{"name":"Allahabad","geometry":{"type":"Point","coordinates":[81.8338005,25.4381302]},"type":"city"}
{"name":"Arrah","geometry":{"type":"Point","coordinates":[84.6612934,25.5596879]},"type":"city"}
{"name":"Shillong","geometry":{"type":"Point","coordinates":[91.8828027,25.5760154]},"type":"city"}
{"name":"Chhapra","geometry":{"type":"Point","coordinates":[84.7514507,25.7784105]},"type":"town"}
{"name":"Purnia","geometry":{"type":"Point","coordinates":[87.4731227,25.7773601]},"type":"city"}
{"name":"Jodhpur","geometry":{"type":"Point","coordinates":[73.0351433,26.2967719]},"type":"city"}
{"name":"Ajmer","geometry":{"type":"Point","coordinates":[74.639,26.4691]},"type":"city"}
{"name":"Faizabad","geometry":{"type":"Point","coordinates":[82.1427,26.7789192]},"type":"city"}
{"name":"Lucknow","geometry":{"type":"Point","coordinates":[80.93460010000001,26.8381]},"type":"city"}
{"name":"Yamunanagar","geometry":{"type":"Point","coordinates":[77.286329,30.1231349]},"type":"city"}
{"name":"Amritsar","geometry":{"type":"Point","coordinates":[74.8736788,31.6343083]},"type":"city"}
{"name":"Puebla","geometry":{"type":"Point","coordinates":[-98.1984744,19.0437227]},"type":"city"}
{"name":"Kokand","geometry":{"type":"Point","coordinates":[70.92789830000001,40.5361326]},"type":"city"}
{"name":"Margilan","geometry":{"type":"Point","coordinates":[71.7205162,40.4696255]},"type":"city"}
{"name":"Dominican Republic","geometry":{"type":"Point","coordinates":[-70.3028026,19.0974031]},"type":"country"}
{"name":"Navoiy","geometry":{"type":"Point","coordinates":[65.3734221,40.1034582]},"type":"city"}
{"name":"Kaluga","geometry":{"type":"Point","coordinates":[36.2598115,54.5101087]},"type":"city"}
{"name":"Governador Valadares","geometry":{"type":"Point","coordinates":[-41.9458753,-18.8539497]},"type":"city"}
{"name":"Belo Horizonte","geometry":{"type":"Point","coordinates":[-43.9450948,-19.9227318]},"type":"city"}
{"name":"Uberlândia","geometry":{"type":"Point","coordinates":[-48.2767837,-18.9188041]},"type":"city"}
{"name":"Andijan","geometry":{"type":"Point","coordinates":[72.3506746,40.7833471]},"type":"city"}
{"name":"New Zealand","geometry":{"type":"Point","coordinates":[172.8344077,-41.5000831]},"type":"country"}
{"name":"Ad Diwaniyah","geometry":{"type":"Point","coordinates":[44.9236266,31.9853304]},"type":"city"}
{"name":"Kirkuk","geometry":{"type":"Point","coordinates":[44.3964846,35.4701099]},"type":"city"}
{"name":"As Samawah","geometry":{"type":"Point","coordinates":[45.2826616,31.3078736]},"type":"city"}
{"name":"Nasiriyah","geometry":{"type":"Point","coordinates":[46.2575523,31.0440068]},"type":"city"}
{"name":"Baqubah","geometry":{"type":"Point","coordinates":[44.6495225,33.7437267]},"type":"city"}
{"name":"Al Hillah","geometry":{"type":"Point","coordinates":[44.4328131,32.482245]},"type":"city"}
{"name":"Seville","geometry":{"type":"Point","coordinates":[-5.9953171,37.3886303]},"type":"city"}
{"name":"Kosti","geometry":{"type":"Point","coordinates":[32.6725113,13.1521864]},"type":"city"}
{"name":"Al-Ubayyid","geometry":{"type":"Point","coordinates":[30.222559,13.183366]},"type":"city"}
{"name":"Nouakchott","geometry":{"type":"Point","coordinates":[-15.9780071,18.0792379]},"type":"city"}
{"name":"Armenia","geometry":{"type":"Point","coordinates":[44.6736646,40.7696272]},"type":"country"}
{"name":"Argentina","geometry":{"type":"Point","coordinates":[-64.9672817,-34.9964963]},"type":"country"}
{"name":"Barbados","geometry":{"type":"Point","coordinates":[-59.5250305,13.1500331]},"type":"country"}
{"name":"Burkina Faso","geometry":{"type":"Point","coordinates":[-1.6880314,12.0753083]},"type":"country"}
{"name":"Bahamas","geometry":{"type":"Point","coordinates":[-78.0000547,24.7736546]},"type":"country"}
{"name":"Belarus","geometry":{"type":"Point","coordinates":[27.6971358,53.4250605]},"type":"country"}
{"name":"Cuba","geometry":{"type":"Point","coordinates":[-80.8328748,23.0131338]},"type":"country"}
{"name":"Hungary","geometry":{"type":"Point","coordinates":[19.5060937,47.1817585]},"type":"country"}
{"name":"North Korea","geometry":{"type":"Point","coordinates":[127.08704170000001,40.3736611]},"type":"country"}
{"name":"Comoros","geometry":{"type":"Point","coordinates":[44.2832964,-12.2045176]},"type":"country"}
{"name":"South Korea","geometry":{"type":"Point","coordinates":[127.9408564,36.5581914]},"type":"country"}
{"name":"Nepal","geometry":{"type":"Point","coordinates":[84.0917139,28.1083929]},"type":"country"}
{"name":"Malaysia","geometry":{"type":"Point","coordinates":[102.2656823,4.5693754]},"type":"country"}
{"name":"Peru","geometry":{"type":"Point","coordinates":[-75.0458515,-6.8699697]},"type":"country"}
{"name":"São Tomé and Príncipe","geometry":{"type":"Point","coordinates":[6.9648718,0.8875498]},"type":"country"}
{"name":"Saudi Arabia","geometry":{"type":"Point","coordinates":[42.3528328,25.6242618]},"type":"country"}
{"name":"Trinidad and Tobago","geometry":{"type":"Point","coordinates":[-60.9821067,10.8677845]},"type":"country"}
{"name":"Yemen","geometry":{"type":"Point","coordinates":[47.8915271,16.3471243]},"type":"country"}
{"name":"Turkmenistan","geometry":{"type":"Point","coordinates":[59.3924609,39.3763807]},"type":"country"}
{"name":"Oceania","geometry":{"type":"Point","coordinates":[138.5156,-18.3128]},"type":"continent"}
{"name":"Mayotte","geometry":{"type":"Point","coordinates":[45.1520755,-12.823048]},"type":"state"}
{"name":"Cantón Santo Domingo de los Colorados","geometry":{"type":"Point","coordinates":[-79.1758315,-0.2444498]},"type":"city"}
{"name":"Penang Island","geometry":{"type":"Point","coordinates":[100.2559077,5.4065013]},"type":"state"}
{"name":"Vinnytsia","geometry":{"type":"Point","coordinates":[28.467975,49.2320162]},"type":"city"}
{"name":"Asuncion","geometry":{"type":"Point","coordinates":[-57.6311196,-25.2959916]},"type":"city"}
{"name":"Santiago de los Caballeros","geometry":{"type":"Point","coordinates":[-70.6906112,19.4502926]},"type":"city"}
{"name":"La Romana","geometry":{"type":"Point","coordinates":[-68.9734597,18.4272786]},"type":"city"}
{"name":"Bahawalpur","geometry":{"type":"Point","coordinates":[71.6638747,29.394644]},"type":"city"}
{"name":"Sevastopol","geometry":{"type":"Point","coordinates":[33.5220842,44.6054434]},"type":"city"}
{"name":"Khmelnytskyi","geometry":{"type":"Point","coordinates":[26.9793793,49.4196404]},"type":"city"}
{"name":"Okara","geometry":{"type":"Point","coordinates":[73.44933010000001,30.8091281]},"type":"city"}
{"name":"Sahiwal","geometry":{"type":"Point","coordinates":[73.1110572,30.6715098]},"type":"city"}
{"name":"Bata","geometry":{"type":"Point","coordinates":[9.768665,1.8650897]},"type":"city"}
{"name":"Chita","geometry":{"type":"Point","coordinates":[113.500893,52.033409]},"type":"city"}
{"name":"Zhytomyr","geometry":{"type":"Point","coordinates":[28.6692345,50.2598298]},"type":"city"}
{"name":"Simferopol","geometry":{"type":"Point","coordinates":[34.1024858,44.9521457]},"type":"city"}
{"name":"Morogoro","geometry":{"type":"Point","coordinates":[37.6693891,-6.8161626]},"type":"city"}
{"name":"Zelenograd","geometry":{"type":"Point","coordinates":[37.1984616,55.9964173]},"type":"city"}
{"name":"Arequipa","geometry":{"type":"Point","coordinates":[-71.5369607,-16.3988667]},"type":"city"}
{"name":"Lugansk","geometry":{"type":"Point","coordinates":[39.2912928,48.5674507]},"type":"city"}
{"name":"Dera Ghazi Khan","geometry":{"type":"Point","coordinates":[70.6401114,30.0321374]},"type":"city"}
{"name":"Juliaca","geometry":{"type":"Point","coordinates":[-70.132216,-15.4915945]},"type":"city"}
{"name":"Sungai Petani","geometry":{"type":"Point","coordinates":[100.49160540000001,5.6439426]},"type":"city"}
{"name":"Taiping","geometry":{"type":"Point","coordinates":[100.73716,4.847834]},"type":"city"}
{"name":"Johor Bahru","geometry":{"type":"Point","coordinates":[103.7550839,1.4953041]},"type":"city"}
{"name":"Mahajanga","geometry":{"type":"Point","coordinates":[46.3172577,-15.7181492]},"type":"city"}
{"name":"Valenzuela","geometry":{"type":"Point","coordinates":[120.9461718,14.707735]},"type":"city"}
{"name":"Makati","geometry":{"type":"Point","coordinates":[121.023532,14.5568853]},"type":"city"}
{"name":"San Pedro","geometry":{"type":"Point","coordinates":[121.0531876,14.363668]},"type":"city"}
{"name":"Bila Tserkva","geometry":{"type":"Point","coordinates":[30.1116924,49.8038191]},"type":"city"}
{"name":"Kherson","geometry":{"type":"Point","coordinates":[32.6145315,46.640176]},"type":"city"}
{"name":"Arusha","geometry":{"type":"Point","coordinates":[36.6915518,-3.3669557]},"type":"city"}
{"name":"Tanga","geometry":{"type":"Point","coordinates":[39.0993457,-5.0721976]},"type":"city"}
{"name":"Tacoma","geometry":{"type":"Point","coordinates":[-122.43987460000001,47.2495798]},"type":"city"}
{"name":"Porto Velho","geometry":{"type":"Point","coordinates":[-63.8735438,-8.7494525]},"type":"city"}
{"name":"Semarang","geometry":{"type":"Point","coordinates":[110.42294550000001,-6.9904038]},"type":"city"}
{"name":"Sariwon","geometry":{"type":"Point","coordinates":[125.7555447,38.50935]},"type":"city"}
{"name":"Haeju","geometry":{"type":"Point","coordinates":[125.71400860000001,38.0401144]},"type":"city"}
{"name":"Gorlovka","geometry":{"type":"Point","coordinates":[38.0027664,48.3058686]},"type":"city"}
{"name":"Makeevka","geometry":{"type":"Point","coordinates":[37.9635093,48.0448144]},"type":"city"}
{"name":"Hamhung","geometry":{"type":"Point","coordinates":[127.54397940000001,39.915463]},"type":"city"}
{"name":"Sinuiju","geometry":{"type":"Point","coordinates":[124.3977559,40.0940758]},"type":"city"}
{"name":"Daegu","geometry":{"type":"Point","coordinates":[128.55995180000002,35.8494916]},"type":"city"}
{"name":"Daejeon","geometry":{"type":"Point","coordinates":[127.384902,36.3496963]},"type":"city"}
{"name":"Seongnam-si","geometry":{"type":"Point","coordinates":[127.1262092,37.4201556]},"type":"city"}
{"name":"Gyeongju-si","geometry":{"type":"Point","coordinates":[129.2248811,35.8556705]},"type":"city"}
{"name":"Mokpo-si","geometry":{"type":"Point","coordinates":[126.3847547,34.7903335]},"type":"city"}
{"name":"Changwon","geometry":{"type":"Point","coordinates":[128.6818586,35.227956]},"type":"city"}
{"name":"Ansan-si","geometry":{"type":"Point","coordinates":[126.8308604,37.3217152]},"type":"city"}
{"name":"Suwon-si","geometry":{"type":"Point","coordinates":[127.02874720000001,37.2633325]},"type":"city"}
{"name":"Sana'a","geometry":{"type":"Point","coordinates":[44.2005197,15.342101]},"type":"city"}
{"name":"Cebu City","geometry":{"type":"Point","coordinates":[123.8930839,10.3090298]},"type":"city"}
{"name":"Sihanoukville","geometry":{"type":"Point","coordinates":[103.5223365,10.6220485]},"type":"city"}
{"name":"Camagüey","geometry":{"type":"Point","coordinates":[-77.9188009,21.3822081]},"type":"city"}
{"name":"Santiago de Cuba","geometry":{"type":"Point","coordinates":[-75.8217639,20.0223513]},"type":"city"}
{"name":"Holguín","geometry":{"type":"Point","coordinates":[-76.2592587,20.8870943]},"type":"city"}
{"name":"Kitchener","geometry":{"type":"Point","coordinates":[-80.494423,43.453168]},"type":"city"}
{"name":"Surakarta","geometry":{"type":"Point","coordinates":[110.828448,-7.5692462]},"type":"city"}
{"name":"Abu Dhabi","geometry":{"type":"Point","coordinates":[54.3705762,24.4747961]},"type":"city"}
{"name":"Dili","geometry":{"type":"Point","coordinates":[125.5784093,-8.5536809]},"type":"city"}
{"name":"Kupang","geometry":{"type":"Point","coordinates":[123.6017755,-10.1632209]},"type":"city"}
{"name":"Ras al-Khaimah","geometry":{"type":"Point","coordinates":[55.938232,25.7737705]},"type":"city"}
{"name":"Ajman","geometry":{"type":"Point","coordinates":[55.4451432,25.3936557]},"type":"city"}
{"name":"Ta'izz","geometry":{"type":"Point","coordinates":[44.0215268,13.5752242]},"type":"city"}
{"name":"Aden","geometry":{"type":"Point","coordinates":[45.028504,12.789585]},"type":"city"}
{"name":"Tokushima","geometry":{"type":"Point","coordinates":[134.55503530000001,34.0698307]},"type":"city"}
{"name":"Kanggye","geometry":{"type":"Point","coordinates":[126.5975399,40.9659004]},"type":"city"}
{"name":"Bandung","geometry":{"type":"Point","coordinates":[107.60495390000001,-6.9344694]},"type":"city"}
{"name":"Sylhet","geometry":{"type":"Point","coordinates":[91.8685271,24.89922]},"type":"city"}
{"name":"Brasov","geometry":{"type":"Point","coordinates":[25.6102746,45.6523093]},"type":"city"}
{"name":"Tokyo","geometry":{"type":"Point","coordinates":[139.7594549,35.6828387]},"type":"city"}
{"name":"Cherkasy","geometry":{"type":"Point","coordinates":[32.0587805,49.4447888]},"type":"city"}
{"name":"Sumy","geometry":{"type":"Point","coordinates":[34.798386,50.9070007]},"type":"city"}
{"name":"Kremenchuk","geometry":{"type":"Point","coordinates":[33.4325,49.0797222]},"type":"city"}
{"name":"Lisbon","geometry":{"type":"Point","coordinates":[-9.1365919,38.7077507]},"type":"city"}
{"name":"La Paz","geometry":{"type":"Point","coordinates":[-110.32350670000001,24.1488324]},"type":"city"}
{"name":"Cartagena","geometry":{"type":"Point","coordinates":[-75.52712240000001,10.4195841]},"type":"city"}
{"name":"Hefei","geometry":{"type":"Point","coordinates":[117.2218033,31.8228094]},"type":"city"}
{"name":"Medan","geometry":{"type":"Point","coordinates":[98.6738261,3.5896654]},"type":"city"}
{"name":"Amsterdam","geometry":{"type":"Point","coordinates":[4.8936041,52.3727598]},"type":"city"}
{"name":"Cumilla","geometry":{"type":"Point","coordinates":[91.1810384,23.4604981]},"type":"city"}
{"name":"Ivano-Frankivsk","geometry":{"type":"Point","coordinates":[24.7103188,48.9225224]},"type":"city"}
{"name":"Murmansk","geometry":{"type":"Point","coordinates":[33.07497,68.970665]},"type":"city"}
{"name":"San Pablo","geometry":{"type":"Point","coordinates":[121.3255974,14.0700502]},"type":"city"}
{"name":"Querétaro","geometry":{"type":"Point","coordinates":[-100.3879904,20.5878372]},"type":"city"}
{"name":"San Luis Potosi","geometry":{"type":"Point","coordinates":[-100.97639930000001,22.1516472]},"type":"city"}
{"name":"Villahermosa","geometry":{"type":"Point","coordinates":[-92.917505,17.99571]},"type":"city"}
{"name":"Campeche","geometry":{"type":"Point","coordinates":[-90.536208,19.844265]},"type":"city"}
{"name":"Mérida","geometry":{"type":"Point","coordinates":[-89.6237402,20.9670759]},"type":"city"}
{"name":"Tuxtla Gutiérrez","geometry":{"type":"Point","coordinates":[-93.115959,16.753801]},"type":"city"}
{"name":"Oaxaca","geometry":{"type":"Point","coordinates":[-96.7253575,17.0604663]},"type":"city"}
{"name":"Acapulco","geometry":{"type":"Point","coordinates":[-99.8768321,16.8602906]},"type":"city"}
{"name":"Toluca","geometry":{"type":"Point","coordinates":[-99.6569007,19.292545]},"type":"city"}
{"name":"Morelia","geometry":{"type":"Point","coordinates":[-101.1923818,19.7027116]},"type":"city"}
{"name":"Irbid","geometry":{"type":"Point","coordinates":[35.8493023,32.5556091]},"type":"city"}
{"name":"Cairo","geometry":{"type":"Point","coordinates":[31.243666,30.048819]},"type":"city"}
{"name":"Kunduz","geometry":{"type":"Point","coordinates":[68.8672916,36.7175566]},"type":"city"}
{"name":"Trujillo","geometry":{"type":"Point","coordinates":[-79.0287742,-8.1116778]},"type":"city"}
{"name":"Piura","geometry":{"type":"Point","coordinates":[-80.6323,-5.1949018]},"type":"city"}
{"name":"Chihuahua","geometry":{"type":"Point","coordinates":[-106.07497810000001,28.660574]},"type":"city"}
{"name":"Hermosillo","geometry":{"type":"Point","coordinates":[-110.9612378,29.0894152]},"type":"city"}
{"name":"Culiacán","geometry":{"type":"Point","coordinates":[-107.39363010000001,24.8015732]},"type":"city"}
{"name":"León","geometry":{"type":"Point","coordinates":[-101.6825081,21.1218598]},"type":"city"}
{"name":"Los Mochis","geometry":{"type":"Point","coordinates":[-108.990188,25.7928058]},"type":"city"}
{"name":"Cali","geometry":{"type":"Point","coordinates":[-76.5113048,3.4319329]},"type":"city"}
{"name":"Denpasar","geometry":{"type":"Point","coordinates":[115.21911750000001,-8.6524973]},"type":"city"}
{"name":"Tegal","geometry":{"type":"Point","coordinates":[109.13788330000001,-6.8673767]},"type":"city"}
{"name":"Hulunbuir","geometry":{"type":"Point","coordinates":[119.7431228,49.2187995]},"type":"city"}
{"name":"Arkhangelsk","geometry":{"type":"Point","coordinates":[40.537121,64.543022]},"type":"city"}
{"name":"Khabarovsk","geometry":{"type":"Point","coordinates":[135.076935,48.481403]},"type":"city"}
{"name":"Al Zawiyah","geometry":{"type":"Point","coordinates":[12.7264789,32.7626409]},"type":"city"}
{"name":"Tel Aviv","geometry":{"type":"Point","coordinates":[34.7805274,32.0804808]},"type":"city"}
{"name":"Tacloban","geometry":{"type":"Point","coordinates":[125.00814020000001,11.2430274]},"type":"city"}
{"name":"Puerto Princesa","geometry":{"type":"Point","coordinates":[118.73504140000001,9.7376025]},"type":"city"}
{"name":"Harbin","geometry":{"type":"Point","coordinates":[126.61605840000001,45.7656666]},"type":"city"}
{"name":"Ormoc","geometry":{"type":"Point","coordinates":[124.6075064,11.0044547]},"type":"city"}
{"name":"Mahilyow","geometry":{"type":"Point","coordinates":[30.3429838,53.9090245]},"type":"city"}
{"name":"Shenyang","geometry":{"type":"Point","coordinates":[123.4277858,41.8045293]},"type":"city"}
{"name":"Sheikhupura","geometry":{"type":"Point","coordinates":[73.9864014,31.7085285]},"type":"city"}
{"name":"Kasur","geometry":{"type":"Point","coordinates":[74.4478314,31.1175143]},"type":"city"}
{"name":"Paramaribo","geometry":{"type":"Point","coordinates":[-55.1771974,5.8216198]},"type":"city"}
{"name":"Cagayan de Oro","geometry":{"type":"Point","coordinates":[124.6415658,8.4763659]},"type":"city"}
{"name":"Criciúma","geometry":{"type":"Point","coordinates":[-49.3695627,-28.6789941]},"type":"city"}
{"name":"Manizales","geometry":{"type":"Point","coordinates":[-75.4992304,5.0646046]},"type":"city"}
{"name":"Nampula","geometry":{"type":"Point","coordinates":[39.2615886,-15.1194063]},"type":"city"}
{"name":"Sfax","geometry":{"type":"Point","coordinates":[10.7598516,34.739739]},"type":"city"}
{"name":"Sousse","geometry":{"type":"Point","coordinates":[10.640525,35.828829]},"type":"city"}
{"name":"Varanasi","geometry":{"type":"Point","coordinates":[83.00762920000001,25.3356491]},"type":"city"}
{"name":"Chimbote","geometry":{"type":"Point","coordinates":[-78.5900838,-9.0783629]},"type":"city"}
{"name":"Dammam","geometry":{"type":"Point","coordinates":[50.1039991,26.4367824]},"type":"city"}
{"name":"Durango","geometry":{"type":"Point","coordinates":[-104.6702594,24.0244371]},"type":"city"}
{"name":"Blida","geometry":{"type":"Point","coordinates":[2.8287985,36.4701645]},"type":"city"}
{"name":"Bayda","geometry":{"type":"Point","coordinates":[21.7577175,32.7609529]},"type":"city"}
{"name":"Port Sudan","geometry":{"type":"Point","coordinates":[37.211709,19.619217]},"type":"city"}
{"name":"Fez","geometry":{"type":"Point","coordinates":[-5.0161926,34.0346534]},"type":"city"}
{"name":"Beirut","geometry":{"type":"Point","coordinates":[35.47843,33.8959203]},"type":"city"}
{"name":"Tatta","geometry":{"type":"Point","coordinates":[67.9240283,24.7469]},"type":"city"}
{"name":"Nyala","geometry":{"type":"Point","coordinates":[24.8795115,12.0505098]},"type":"city"}
{"name":"Berbera","geometry":{"type":"Point","coordinates":[45.0134007,10.4386215]},"type":"city"}
{"name":"Ciudad Victoria","geometry":{"type":"Point","coordinates":[-99.1419341,23.7439573]},"type":"city"}
{"name":"Auckland","geometry":{"type":"Point","coordinates":[174.76555140000002,-36.8534665]},"type":"city"}
{"name":"Ambon","geometry":{"type":"Point","coordinates":[128.178785,-3.6959434]},"type":"city"}
{"name":"Gonaïves","geometry":{"type":"Point","coordinates":[-72.68843360000001,19.4460597]},"type":"city"}
{"name":"Ipoh","geometry":{"type":"Point","coordinates":[101.0756408,4.5982537]},"type":"city"}
{"name":"Peshawar","geometry":{"type":"Point","coordinates":[71.5787458,34.0123846]},"type":"city"}
{"name":"Al-Qadarif","geometry":{"type":"Point","coordinates":[35.398832,14.040941]},"type":"city"}
{"name":"Damietta","geometry":{"type":"Point","coordinates":[31.8213657,31.4167427]},"type":"city"}
{"name":"Al Bahah","geometry":{"type":"Point","coordinates":[41.4656378,20.0137941]},"type":"city"}
{"name":"Abha","geometry":{"type":"Point","coordinates":[42.5043596,18.2164282]},"type":"city"}
{"name":"Palu","geometry":{"type":"Point","coordinates":[119.8679974,-0.8957793]},"type":"city"}
{"name":"Montevideo","geometry":{"type":"Point","coordinates":[-56.1913569,-34.9059039]},"type":"city"}
{"name":"Matamoros","geometry":{"type":"Point","coordinates":[-97.50667580000001,25.8704735]},"type":"city"}
{"name":"Makassar","geometry":{"type":"Point","coordinates":[119.4124282,-5.1342962]},"type":"city"}
{"name":"Dire Dawa","geometry":{"type":"Point","coordinates":[41.85572,9.5944718]},"type":"city"}
{"name":"Rabat","geometry":{"type":"Point","coordinates":[-6.834543,34.022405]},"type":"city"}
{"name":"Al-Zaqaziq‎","geometry":{"type":"Point","coordinates":[31.5035127,30.5853431]},"type":"city"}
{"name":"Damanhur","geometry":{"type":"Point","coordinates":[30.4710625,31.0374982]},"type":"city"}
{"name":"Qena","geometry":{"type":"Point","coordinates":[32.7182974,26.1615051]},"type":"city"}
{"name":"Dehradun","geometry":{"type":"Point","coordinates":[78.0436813,30.3255646]},"type":"city"}
{"name":"Algiers","geometry":{"type":"Point","coordinates":[3.060065,36.775348]},"type":"city"}
{"name":"Annaba","geometry":{"type":"Point","coordinates":[7.7549272,36.8982165]},"type":"city"}
{"name":"Batna","geometry":{"type":"Point","coordinates":[6.1767453,35.554404]},"type":"city"}
{"name":"Djelfa","geometry":{"type":"Point","coordinates":[3.254037,34.671359]},"type":"city"}
{"name":"Sidi Bel Abbes","geometry":{"type":"Point","coordinates":[-0.634632,35.191069]},"type":"city"}
{"name":"Biskra","geometry":{"type":"Point","coordinates":[5.7286878,34.8508508]},"type":"city"}
{"name":"Tiaret","geometry":{"type":"Point","coordinates":[1.3194687,35.3661448]},"type":"city"}
{"name":"Popayán","geometry":{"type":"Point","coordinates":[-76.6060618,2.4418517]},"type":"city"}
{"name":"Montreal","geometry":{"type":"Point","coordinates":[-73.6103642,45.4972159]},"type":"city"}
{"name":"Kassala","geometry":{"type":"Point","coordinates":[36.3771099,15.4521163]},"type":"city"}
{"name":"Wad Madanī","geometry":{"type":"Point","coordinates":[33.5309561,14.3965781]},"type":"city"}
{"name":"Ad Da'ein","geometry":{"type":"Point","coordinates":[26.1310939,11.4611731]},"type":"city"}
{"name":"Al-Fashir","geometry":{"type":"Point","coordinates":[25.3555559,13.6238244]},"type":"city"}
{"name":"Ad-Damazin","geometry":{"type":"Point","coordinates":[34.3656298,11.8073636]},"type":"city"}
{"name":"Kota Kinabalu","geometry":{"type":"Point","coordinates":[116.0728988,5.9780066]},"type":"city"}
{"name":"Kanazawa","geometry":{"type":"Point","coordinates":[136.6568822,36.561627]},"type":"city"}
{"name":"Jiamusi","geometry":{"type":"Point","coordinates":[130.3734556,46.8087794]},