{
"type": "FeatureCollection",
"name": "geoJson",
"crs": { "type": "name", "properties": { "name": "urn:ogc:def:crs:OGC:1.3:CRS84" } },
"features": [
{ "type": "Feature", "properties": { "NAME": "China"}, "zoom": 5, "scale": 1, "geometry": { "type": "Point", "coordinates": [ 104.153013472025165, 37.589799826626681 ] } },
{ "type": "Feature", "properties": { "NAME": "India" }, "zoom": 4, "scale": 1, "geometry": { "type": "Point", "coordinates": [ 79.627796089846541, 23.217145968521535 ] } },
{ "type": "Feature", "properties": { "NAME": "United States" }, "zoom": 5, "scale": 1, "geometry": { "type": "Point", "coordinates": [ -99.108178735381145, 39.926792893257932 ] } },
{ "type": "Feature", "properties": { "NAME": "Indonesia" }, "zoom": 2, "scale": 1, "geometry": { "type": "Point", "coordinates": [ 120.198067903689335, -1.968341905814898 ] } },
{ "type": "Feature", "properties": { "NAME": "Brazil" }, "zoom": 5, "scale": 1, "geometry": { "type": "Point", "coordinates": [ -52.898865941679013, -9.355475254236953 ] } },
{ "type": "Feature", "properties": { "NAME": "Pakistan" }, "zoom": 4, "scale": 1, "geometry": { "type": "Point", "coordinates": [ 69.430318970198243, 30.120349657704686 ] } },
{ "type": "Feature", "properties": { "NAME": "Bangladesh" }, "zoom": 2, "scale": 1, "geometry": { "type": "Point", "coordinates": [ 89.973664131299913, 24.101863610601871 ] } },
{ "type": "Feature", "properties": { "NAME": "Nigeria" }, "zoom": 3, "scale": 1, "geometry": { "type": "Point", "coordinates": [ 8.096298676334625, 9.619843030373138 ] } },
{ "type": "Feature", "properties": { "NAME": "Russia" }, "zoom": 7, "scale": 1, "geometry": { "type": "Point", "coordinates": [ 97.841958764666856, 64.846071725504132 ] } },
{ "type": "Feature", "properties": { "NAME": "Japan" }, "zoom": 3, "scale": 1, "geometry": { "type": "Point", "coordinates": [ 139.111408461730889, 36.81521069157801 ] } },
{ "type": "Feature", "properties": { "NAME": "Mexico" }, "zoom": 5, "scale": 1, "geometry": { "type": "Point", "coordinates": [ -102.70602416445081, 24.189670302868517 ] } },
{ "type": "Feature", "properties": { "NAME": "Philippines" }, "zoom": 2, "scale": 1, "geometry": { "type": "Point", "coordinates": [ 122.857229284133226, 11.842759755415399 ] } },
{ "type": "Feature", "properties": { "NAME": "Vietnam" }, "zoom": 2, "scale": 1, "geometry": { "type": "Point", "coordinates": [ 107.935039460067898, 15.467356920637979 ] } },
{ "type": "Feature", "properties": { "NAME": "Ethiopia" }, "zoom": 3, "scale": 1, "geometry": { "type": "Point", "coordinates": [ 39.595800289033171, 8.653066305290389 ] } },
{ "type": "Feature", "properties": { "NAME": "Egypt" }, "zoom": 3, "scale": 1, "geometry": { "type": "Point", "coordinates": [ 29.853064134173657, 26.591058841836897 ] } },
{ "type": "Feature", "properties": { "NAME": "Germany" }, "zoom": 2, "scale": 1, "geometry": { "type": "Point", "coordinates": [ 10.392359593561563, 51.218587795072956 ] } },
{ "type": "Feature", "properties": { "NAME": "Turkey" }, "zoom": 3, "scale": 1, "geometry": { "type": "Point", "coordinates": [ 35.164610071166706, 39.102757573906992 ] } },
{ "type": "Feature", "properties": { "NAME": "Congo" }, "zoom": 3, "scale": 1, "geometry": { "type": "Point", "coordinates": [ 23.119143428263033, -2.906954898772824 ] } },
{ "type": "Feature", "properties": { "NAME": "Iran" }, "zoom": 3, "scale": 1, "geometry": { "type": "Point", "coordinates": [ 54.193466457447464, 32.767299203430383 ] } },
{ "type": "Feature", "properties": { "NAME": "Thailand" }, "zoom": 2, "scale": 1, "geometry": { "type": "Point", "coordinates": [ 101.401979690216791, 15.821438734402083 ] } },
{ "type": "Feature", "properties": { "NAME": "France" }, "zoom": 2, "scale": 1, "geometry": { "type": "Point", "coordinates": [ 2.541863149556335, 47.710610152814056 ] } },
{ "type": "Feature", "properties": { "NAME": "UK" }, "zoom": 2, "scale": 1, "geometry": { "type": "Point", "coordinates": [ -1.964338375186469, 52.992382774731006 ] } },
{ "type": "Feature", "properties": { "NAME": "Italy" }, "zoom": 2, "scale": 1, "geometry": { "type": "Point", "coordinates": [ 12.007594585339879, 42.954624997014882 ] } },
{ "type": "Feature", "properties": { "NAME": "South Africa" }, "zoom": 3, "scale": 1, "geometry": { "type": "Point", "coordinates": [ 22.481510752074463, -30.19365242177939 ] } },
{ "type": "Feature", "properties": { "NAME": "South Korea" }, "zoom": 2, "scale": 0, "geometry": { "type": "Point", "coordinates": [ 128.033374182563534, 36.399338268655995 ] } },
{ "type": "Feature", "properties": { "NAME": "Myanmar" }, "zoom": 2, "scale": 1, "geometry": { "type": "Point", "coordinates": [ 96.221377879280723, 21.232531406170033 ] } },
{ "type": "Feature", "properties": { "NAME": "Ukraine" }, "zoom": 2, "scale": 1, "geometry": { "type": "Point", "coordinates": [ 31.346952164384685, 49.077678434720063 ] } },
{ "type": "Feature", "properties": { "NAME": "Colombia" }, "zoom": 3, "scale": 1, "geometry": { "type": "Point", "coordinates": [ -73.082304032566327, 3.931955594507839 ] } },
{ "type": "Feature", "properties": { "NAME": "Tanzania" }, "zoom": 3, "scale": 1, "geometry": { "type": "Point", "coordinates": [ 34.818844525034166, -6.295667696815176 ] } },
{ "type": "Feature", "properties": { "NAME": "Argentina" }, "zoom": 4, "scale": 1, "geometry": { "type": "Point", "coordinates": [ -64.358755657041755, -35.329147320151023 ] } },
{ "type": "Feature", "properties": { "NAME": "Spain" }, "zoom": 2, "scale": 1, "geometry": { "type": "Point", "coordinates": [ -3.632857394486542, 40.348738869480634 ] } },
{ "type": "Feature", "properties": { "NAME": "Kenya" }, "zoom": 2, "scale": 1, "geometry": { "type": "Point", "coordinates": [ 37.796093358363265, 0.599312528123402 ] } },
{ "type": "Feature", "properties": { "NAME": "Poland" }, "zoom": 2, "scale": 1, "geometry": { "type": "Point", "coordinates": [ 19.380227489081069, 52.187936488609218 ] } },
{ "type": "Feature", "properties": { "NAME": "Morocco" }, "zoom": 3, "scale": 1, "geometry": { "type": "Point", "coordinates": [ -8.322662189608305, 30.034457064521533 ] } },
{ "type": "Feature", "properties": { "NAME": "Algeria" }, "zoom": 3, "scale": 1, "geometry": { "type": "Point", "coordinates": [ 2.614546097315428, 28.420021116094116 ] } },
{ "type": "Feature", "properties": { "NAME": "Canada" }, "zoom": 5, "scale": 1, "geometry": { "type": "Point", "coordinates": [ -100.061927236358756, 54.544215203702038 ] } },
{ "type": "Feature", "properties": { "NAME": "Uganda" }, "zoom": 2, "scale": 0, "geometry": { "type": "Point", "coordinates": [ 32.367253275384918, 1.276857292909377 ] } },
{ "type": "Feature", "properties": { "NAME": "Sudan" }, "zoom": 3, "scale": 1, "geometry": { "type": "Point", "coordinates": [ 29.955774813376188, 16.074226826597311 ] } },
{ "type": "Feature", "properties": { "NAME": "Peru" }, "zoom": 4, "scale": 1, "geometry": { "type": "Point", "coordinates": [ -75.290052041074276, -9.79373629727942 ] } },
{ "type": "Feature", "properties": { "NAME": "Iraq" }, "zoom": 2, "scale": 1, "geometry": { "type": "Point", "coordinates": [ 43.33252577764933, 33.387030479959449 ] } },
{ "type": "Feature", "properties": { "NAME": "Saudi Arabia" }, "zoom": 3, "scale": 0, "geometry": { "type": "Point", "coordinates": [ 44.472502897489434, 24.278749304933264 ] } },
{ "type": "Feature", "properties": { "NAME": "Nepal" }, "zoom": 2, "scale": 1, "geometry": { "type": "Point", "coordinates": [ 83.90067498480029, 28.260379936902851 ] } },
{ "type": "Feature", "properties": { "NAME": "Afghanistan" }, "zoom": 3, "scale": 1, "geometry": { "type": "Point", "coordinates": [ 66.048129309089063, 33.914376252129465 ] } },
{ "type": "Feature", "properties": { "NAME": "Uzbekistan" }, "zoom": 2, "scale": 0, "geometry": { "type": "Point", "coordinates": [ 63.057859759462467, 41.833586907891743 ] } },
{ "type": "Feature", "properties": { "NAME": "Venezuela" }, "zoom": 3, "scale": 1, "geometry": { "type": "Point", "coordinates": [ -65.850660784862384, 7.538401243955938 ] } },
{ "type": "Feature", "properties": { "NAME": "Malaysia" }, "zoom": 1, "scale": 1, "geometry": { "type": "Point", "coordinates": [ 109.69836905752824, 3.796176904424613 ] } },
{ "type": "Feature", "properties": { "NAME": "Ghana" }, "zoom": 1, "scale": 1, "geometry": { "type": "Point", "coordinates": [ -1.116903281177755, 7.635721048212908 ] } },
{ "type": "Feature", "properties": { "NAME": "Yemen" }, "zoom": 3, "scale": 1, "geometry": { "type": "Point", "coordinates": [ 47.600324918855456, 15.920300871015353 ] } },
{ "type": "Feature", "properties": { "NAME": "Taiwan" }, "zoom": 1, "scale": 1, "geometry": { "type": "Point", "coordinates": [ 120.952159991213549, 23.75917371067343 ] } },
{ "type": "Feature", "properties": { "NAME": "North Korea" }, "zoom": 2, "scale": 0, "geometry": { "type": "Point", "coordinates": [ 126.972706726638336, 40.480742993414957 ] } },
{ "type": "Feature", "properties": { "NAME": "Romania" }, "zoom": 2, "scale": 1, "geometry": { "type": "Point", "coordinates": [ 24.968133223329442, 45.887322008194374 ] } },
{ "type": "Feature", "properties": { "NAME": "Mozambique" }, "zoom": 2, "scale": 1, "geometry": { "type": "Point", "coordinates": [ 34.83918478169511, -17.726745024292004 ] } },
{ "type": "Feature", "properties": { "NAME": "Sri Lanka" }, "zoom": 2, "scale": 0, "geometry": { "type": "Point", "coordinates": [ 80.703268573669149, 7.618698075940188 ] } },
{ "type": "Feature", "properties": { "NAME": "Australia" }, "zoom": 5, "scale": 1, "geometry": { "type": "Point", "coordinates": [ 134.208124716987129, -25.516810936390307 ] } },
{ "type": "Feature", "properties": { "NAME": "Madagascar" }, "zoom": 3, "scale": 1, "geometry": { "type": "Point", "coordinates": [ 46.687436271232698, -19.468522382316529 ] } },
{ "type": "Feature", "properties": { "NAME": "Ivory Coast" }, "zoom": 1, "scale": 1, "geometry": { "type": "Point", "coordinates": [ -5.569081720639224, 7.635550337612541 ] } },
{ "type": "Feature", "properties": { "NAME": "Syria" }, "zoom": 2, "scale": 1, "geometry": { "type": "Point", "coordinates": [ 38.514673332054869, 35.047584845963812 ] } },
{ "type": "Feature", "properties": { "NAME": "Cameroon" }, "zoom": 2, "scale": 1, "geometry": { "type": "Point", "coordinates": [ 12.143286951587399, 5.381121583085402 ] } },
{ "type": "Feature", "properties": { "NAME": "Netherlands" }, "zoom": 1, "scale": 0, "geometry": { "type": "Point", "coordinates": [ 5.357190807896474, 52.186262774270865 ] } },
{ "type": "Feature", "properties": { "NAME": "Chile" }, "zoom": 2, "scale": 1, "geometry": { "type": "Point", "coordinates": [ -70.565597868892269, -28.685878867787654 ] } },
{ "type": "Feature", "properties": { "NAME": "Burkina Faso" }, "zoom": 1, "scale": 1, "geometry": { "type": "Point", "coordinates": [ -1.619706180021114, 12.407205633547314 ] } },
{ "type": "Feature", "properties": { "NAME": "Kazakhstan" }, "zoom": 4, "scale": 1, "geometry": { "type": "Point", "coordinates": [ 67.325895647764298, 48.440297401734043 ] } },
{ "type": "Feature", "properties": { "NAME": "Niger" }, "zoom": 3, "scale": 1, "geometry": { "type": "Point", "coordinates": [ 9.413579330872944, 17.480595747737492 ] } },
{ "type": "Feature", "properties": { "NAME": "Ecuador" }, "zoom": 2, "scale": 1, "geometry": { "type": "Point", "coordinates": [ -78.309198927040526, -0.995296318496287 ] } },
{ "type": "Feature", "properties": { "NAME": "Cambodia" }, "zoom": 1, "scale": 1, "geometry": { "type": "Point", "coordinates": [ 104.969934542169156, 12.91527418913298 ] } },
{ "type": "Feature", "properties": { "NAME": "Malawi" }, "zoom": 1, "scale": 0, "geometry": { "type": "Point", "coordinates": [ 33.76273657496138, -13.045605299305727 ] } },
{ "type": "Feature", "properties": { "NAME": "Senegal" }, "zoom": 1, "scale": 1, "geometry": { "type": "Point", "coordinates": [ -14.671997799373807, 14.857392899967094 ] } },
{ "type": "Feature", "properties": { "NAME": "Guatemala" }, "zoom": 1, "scale": 0, "geometry": { "type": "Point", "coordinates": [ -90.363847581920012, 15.701708302649555 ] } },
{ "type": "Feature", "properties": { "NAME": "Angola" }, "zoom": 3, "scale": 1, "geometry": { "type": "Point", "coordinates": [ 17.53911570214261, -12.349081657205708 ] } },
{ "type": "Feature", "properties": { "NAME": "Mali" }, "zoom": 3, "scale": 1, "geometry": { "type": "Point", "coordinates": [ -2.554519227612449, 17.284982456272626 ] } },
{ "type": "Feature", "properties": { "NAME": "Zambia" }, "zoom": 3, "scale": 1, "geometry": { "type": "Point", "coordinates": [ 26.829051681693191, -14.20095637110435 ] } },
{ "type": "Feature", "properties": { "NAME": "Cuba" }, "zoom": 2, "scale": 1, "geometry": { "type": "Point", "coordinates": [ -79.047628421160056, 22.033826410517939 ] } },
{ "type": "Feature", "properties": { "NAME": "Zimbabwe" }, "zoom": 2, "scale": 1, "geometry": { "type": "Point", "coordinates": [ 29.719582066866948, -19.213640395739372 ] } },
{ "type": "Feature", "properties": { "NAME": "Greece" }, "zoom": 1, "scale": 1, "geometry": { "type": "Point", "coordinates": [ 21.843795306940979, 39.416218186106683 ] } },
{ "type": "Feature", "properties": { "NAME": "Portugal" }, "zoom": 2, "scale": 1, "geometry": { "type": "Point", "coordinates": [ -8.573113109084765, 39.633730270815285 ] } },
{ "type": "Feature", "properties": { "NAME": "Tunisia" }, "zoom": 2, "scale": 0, "geometry": { "type": "Point", "coordinates": [ 9.550299308563494, 34.166069660920982 ] } },
{ "type": "Feature", "properties": { "NAME": "Rwanda" }, "zoom": 1, "scale": 0, "geometry": { "type": "Point", "coordinates": [ 29.919012155427659, -1.992886879664459 ] } },
{ "type": "Feature", "properties": { "NAME": "Belgium" }, "zoom": 1, "scale": 1, "geometry": { "type": "Point", "coordinates": [ 4.636527698053228, 50.643486295998329 ] } },
{ "type": "Feature", "properties": { "NAME": "Chad" }, "zoom": 3, "scale": 1, "geometry": { "type": "Point", "coordinates": [ 18.451928826928427, 15.440114170485767 ] } },
{ "type": "Feature", "properties": { "NAME": "Czechia" }, "zoom": 1, "scale": 1, "geometry": { "type": "Point", "coordinates": [ 15.310534562444047, 49.741379385666811 ] } },
{ "type": "Feature", "properties": { "NAME": "Guinea" }, "zoom": 1, "scale": 1, "geometry": { "type": "Point", "coordinates": [ -11.14497666371401, 10.962433647613647 ] } },
{ "type": "Feature", "properties": { "NAME": "Hungary" }, "zoom": 1, "scale": 1, "geometry": { "type": "Point", "coordinates": [ 19.404981254491066, 47.17503378080859 ] } },
{ "type": "Feature", "properties": { "NAME": "Somalia" }, "zoom": 2, "scale": 0, "geometry": { "type": "Point", "coordinates": [ 45.188825805697832, 4.177540406437169 ] } },
{ "type": "Feature", "properties": { "NAME": "Bolivia" }, "zoom": 4, "scale": 1, "geometry": { "type": "Point", "coordinates": [ -64.67879862913874, -16.775032524464763 ] } },
{ "type": "Feature", "properties": { "NAME": "DR" }, "zoom": 1, "scale": 1, "geometry": { "type": "Point", "coordinates": [ -70.181570832810309, 18.882548081263852 ] } },
{ "type": "Feature", "properties": { "NAME": "Belarus" }, "zoom": 2, "scale": 1, "geometry": { "type": "Point", "coordinates": [ 28.042432397456817, 53.578784694821515 ] } },
{ "type": "Feature", "properties": { "NAME": "Sweden" }, "zoom": 4, "scale": 0, "geometry": { "type": "Point", "coordinates": [ 18.063753832376829, 65.307765947277204 ] } },
{ "type": "Feature", "properties": { "NAME": "Haiti" }, "zoom": 1, "scale": 1, "geometry": { "type": "Point", "coordinates": [ -73.087812536384831, 18.846695209505636 ] } },
{ "type": "Feature", "properties": { "NAME": "Burundi" }, "zoom": 1, "scale": 0, "geometry": { "type": "Point", "coordinates": [ 29.875030733427817, -3.357823371539939 ] } },
{ "type": "Feature", "properties": { "NAME": "Benin" }, "zoom": 1, "scale": 1, "geometry": { "type": "Point", "coordinates": [ 2.329360909420177, 10.337098146606323 ] } },
{ "type": "Feature", "properties": { "NAME": "South Sudan" }, "zoom": 2, "scale": 0, "geometry": { "type": "Point", "coordinates": [ 30.249527217195919, 7.317105453475525 ] } },
{ "type": "Feature", "properties": { "NAME": "Azerbaijan" }, "zoom": 1, "scale": 1, "geometry": { "type": "Point", "coordinates": [ 47.723854448263744, 40.364502530971571 ] } },
{ "type": "Feature", "properties": { "NAME": "Austria" }, "zoom": 1, "scale": 1, "geometry": { "type": "Point", "coordinates": [ 14.603006783841485, 47.551143589002301 ] } },
{ "type": "Feature", "properties": { "NAME": "Honduras" }, "zoom": 1, "scale": 1, "geometry": { "type": "Point", "coordinates": [ -86.617213225315936, 14.826995144804014 ] } },
{ "type": "Feature", "properties": { "NAME": "Switzerland" }, "zoom": 1, "scale": 0, "geometry": { "type": "Point", "coordinates": [ 8.216604743241186, 46.804175939119965 ] } },
{ "type": "Feature", "properties": { "NAME": "Serbia" }, "zoom": 1, "scale": 1, "geometry": { "type": "Point", "coordinates": [ 20.781772137605081, 44.243207931115577 ] } },
{ "type": "Feature", "properties": { "NAME": "Tajikistan" }, "zoom": 1, "scale": 0, "geometry": { "type": "Point", "coordinates": [ 71.075379047181571, 39.010837183829729 ] } },
{ "type": "Feature", "properties": { "NAME": "Israel" }, "zoom": 1, "scale": 0, "geometry": { "type": "Point", "coordinates": [ 34.849018434243789, 31.047804123353039 ] } },
{ "type": "Feature", "properties": { "NAME": "Bulgaria" }, "zoom": 1, "scale": 0, "geometry": { "type": "Point", "coordinates": [ 25.22091750800287, 42.780797274211245 ] } },
{ "type": "Feature", "properties": { "NAME": "El Salvador" }, "zoom": 1, "scale": 0, "geometry": { "type": "Point", "coordinates": [ -88.869607031052482, 13.737205127484087 ] } },
{ "type": "Feature", "properties": { "NAME": "Paraguay" }, "zoom": 2, "scale": 0, "geometry": { "type": "Point", "coordinates": [ -58.376652809942094, -23.276718375951852 ] } },
{ "type": "Feature", "properties": { "NAME": "Laos" }, "zoom": 1, "scale": 1, "geometry": { "type": "Point", "coordinates": [ 102.592172524733471, 19.417330381976019 ] } },
{ "type": "Feature", "properties": { "NAME": "Sierra Leone" }, "zoom": 1, "scale": 0, "geometry": { "type": "Point", "coordinates": [ -11.794880045762122, 8.565217912062568 ] } },
{ "type": "Feature", "properties": { "NAME": "Jordan" }, "zoom": 1, "scale": 0, "geometry": { "type": "Point", "coordinates": [ 36.612037429341392, 31.205706821066677 ] } },
{ "type": "Feature", "properties": { "NAME": "Libya" }, "zoom": 4, "scale": 1, "geometry": { "type": "Point", "coordinates": [ 17.981875138735091, 27.15529793936258 ] } },
{ "type": "Feature", "properties": { "NAME": "Papua New Guinea" }, "zoom": 2, "scale": 0, "geometry": { "type": "Point", "coordinates": [ 145.230557266480417, -6.480487384601743 ] } },
{ "type": "Feature", "properties": { "NAME": "Togo" }, "zoom": 1, "scale": 0, "geometry": { "type": "Point", "coordinates": [ 0.961511507446209, 8.697720849576474 ] } },
{ "type": "Feature", "properties": { "NAME": "Nicaragua" }, "zoom": 1, "scale": 1, "geometry": { "type": "Point", "coordinates": [ -85.297327337475409, 12.819187313641891 ] } },
{ "type": "Feature", "properties": { "NAME": "Eritrea" }, "zoom": 1, "scale": 1, "geometry": { "type": "Point", "coordinates": [ 38.085079133865385, 15.814467001158469 ] } },
{ "type": "Feature", "properties": { "NAME": "Denmark" }, "zoom": 1, "scale": 1, "geometry": { "type": "Point", "coordinates": [ 10.043369172030905, 55.984665585860114 ] } },
{ "type": "Feature", "properties": { "NAME": "Slovakia" }, "zoom": 1, "scale": 1, "geometry": { "type": "Point", "coordinates": [ 19.584844414587799, 48.840845668777263 ] } },
{ "type": "Feature", "properties": { "NAME": "Kyrgyzstan" }, "zoom": 2, "scale": 1, "geometry": { "type": "Point", "coordinates": [ 74.822786373638962, 41.878972078529209 ] } },
{ "type": "Feature", "properties": { "NAME": "Finland" }, "zoom": 4, "scale": 1, "geometry": { "type": "Point", "coordinates": [ 26.505398726094921, 63.343781183111801 ] } },
{ "type": "Feature", "properties": { "NAME": "Turkmenistan" }, "zoom": 2, "scale": 1, "geometry": { "type": "Point", "coordinates": [ 59.338734965910533, 39.170236626946838 ] } },
{ "type": "Feature", "properties": { "NAME": "UAE" }, "zoom": 1, "scale": 0, "geometry": { "type": "Point", "coordinates": [ 53.957512907689882, 23.823780801504451 ] } },
{ "type": "Feature", "properties": { "NAME": "Norway" }, "zoom": 4, "scale": 0, "geometry": { "type": "Point", "coordinates": [ 9.152843113541746, 61.414157793504053 ] } },
{ "type": "Feature", "properties": { "NAME": "Singapore" }, "zoom": 1, "scale": 0, "geometry": { "type": "Point", "coordinates": [ 103.813797243482199, 1.358791859706282 ] } },
{ "type": "Feature", "properties": { "NAME": "Georgia" }, "zoom": 2, "scale": 0, "geometry": { "type": "Point", "coordinates": [ 43.499258937879141, 42.176866691035677 ] } },
{ "type": "Feature", "properties": { "NAME": "B&H" }, "zoom": 1, "scale": 1, "geometry": { "type": "Point", "coordinates": [ 17.770359810275668, 44.181322801492811 ] } },
{ "type": "Feature", "properties": { "NAME": "CAR" }, "zoom": 2, "scale": 1, "geometry": { "type": "Point", "coordinates": [ 20.468080874609406, 6.574462117331136 ] } },
{ "type": "Feature", "properties": { "NAME": "Croatia" }, "zoom": 1, "scale": 1, "geometry": { "type": "Point", "coordinates": [ 16.930788067657279, 45.690730109954885 ] } },
{ "type": "Feature", "properties": { "NAME": "Moldova" }, "zoom": 1, "scale": 0, "geometry": { "type": "Point", "coordinates": [ 28.456927772469548, 47.209510001004389 ] } },
{ "type": "Feature", "properties": { "NAME": "Costa Rica" }, "zoom": 1, "scale": 1, "geometry": { "type": "Point", "coordinates": [ -84.194317266737784, 9.975523169825228 ] } },
{ "type": "Feature", "properties": { "NAME": "New Zealand" }, "zoom": 3, "scale": 0, "geometry": { "type": "Point", "coordinates": [ 172.904933213136388, -41.855745473645221 ] } },
{ "type": "Feature", "properties": { "NAME": "Ireland" }, "zoom": 2, "scale": 1, "geometry": { "type": "Point", "coordinates": [ -7.875493013431199, 53.550400482366143 ] } },
{ "type": "Feature", "properties": { "NAME": "Lebanon" }, "zoom": 1, "scale": 0, "geometry": { "type": "Point", "coordinates": [ 35.939513714322594, 34.012645542608482 ] } },
{ "type": "Feature", "properties": { "NAME": "Puerto Rico" }, "zoom": 1, "scale": 0, "geometry": { "type": "Point", "coordinates": [ -66.466402275987292, 18.225853487848674 ] } },
{ "type": "Feature", "properties": { "NAME": "Albania" }, "zoom": 1, "scale": 0, "geometry": { "type": "Point", "coordinates": [ 20.119283069057182, 40.729204693137007 ] } },
{ "type": "Feature", "properties": { "NAME": "Lithuania" }, "zoom": 2, "scale": 0, "geometry": { "type": "Point", "coordinates": [ 23.883397616055031, 55.472941030866572 ] } },
{ "type": "Feature", "properties": { "NAME": "Uruguay" }, "zoom": 2, "scale": 0, "geometry": { "type": "Point", "coordinates": [ -56.014039153456743, -32.822187430215749 ] } },
{ "type": "Feature", "properties": { "NAME": "Liberia" }, "zoom": 1, "scale": 1, "geometry": { "type": "Point", "coordinates": [ -9.486666414621416, 6.422019202751305 ] } },
{ "type": "Feature", "properties": { "NAME": "Oman" }, "zoom": 2, "scale": 1, "geometry": { "type": "Point", "coordinates": [ 56.969442108990812, 21.200338222450149 ] } },
{ "type": "Feature", "properties": { "NAME": "Panama" }, "zoom": 1, "scale": 1, "geometry": { "type": "Point", "coordinates": [ -80.15726081819561, 8.90487998478519 ] } },
{ "type": "Feature", "properties": { "NAME": "Mauritania" }, "zoom": 3, "scale": 1, "geometry": { "type": "Point", "coordinates": [ -10.928007027123636, 20.250524557136693 ] } },
{ "type": "Feature", "properties": { "NAME": "Mongolia" }, "zoom": 5, "scale": 1, "geometry": { "type": "Point", "coordinates": [ 103.018094357588254, 46.962557462023028 ] } },
{ "type": "Feature", "properties": { "NAME": "Armenia" }, "zoom": 1, "scale": 0, "geometry": { "type": "Point", "coordinates": [ 44.563458913783236, 40.597771566568518 ] } },
{ "type": "Feature", "properties": { "NAME": "Jamaica" }, "zoom": 1, "scale": 0, "geometry": { "type": "Point", "coordinates": [ -77.318747409000636, 18.217847646474382 ] } },
{ "type": "Feature", "properties": { "NAME": "Kuwait" }, "zoom": 1, "scale": 0, "geometry": { "type": "Point", "coordinates": [ 47.590209006612419, 29.341295834796945 ] } },
{ "type": "Feature", "properties": { "NAME": "Latvia" }, "zoom": 2, "scale": 1, "geometry": { "type": "Point", "coordinates": [ 25.303092493296329, 56.934006270801078 ] } },
{ "type": "Feature", "properties": { "NAME": "Namibia" }, "zoom": 3, "scale": 0, "geometry": { "type": "Point", "coordinates": [ 17.218156982061902, -22.243714247746972 ] } },
{ "type": "Feature", "properties": { "NAME": "Macedonia" }, "zoom": 1, "scale": 0, "geometry": { "type": "Point", "coordinates": [ 21.684570357995195, 41.597921101321326 ] } },
{ "type": "Feature", "properties": { "NAME": "Slovenia" }, "zoom": 1, "scale": 0, "geometry": { "type": "Point", "coordinates": [ 14.677511048680316, 46.119188877570188 ] } },
{ "type": "Feature", "properties": { "NAME": "Botswana" }, "zoom": 3, "scale": 0, "geometry": { "type": "Point", "coordinates": [ 24.191489426884207, -21.864993000632413 ] } },
{ "type": "Feature", "properties": { "NAME": "Kosovo" }, "zoom": 1, "scale": 0, "geometry": { "type": "Point", "coordinates": [ 20.873691885537763, 42.574729388617108 ] } },
{ "type": "Feature", "properties": { "NAME": "Guinea Bissau" }, "zoom": 1, "scale": 0, "geometry": { "type": "Point", "coordinates": [ -14.977199497990238, 12.027871595755935 ] } },
{ "type": "Feature", "properties": { "NAME": "Gabon" }, "zoom": 2, "scale": 0, "geometry": { "type": "Point", "coordinates": [ 11.692724363059268, -0.686951064846825 ] } },
{ "type": "Feature", "properties": { "NAME": "Estonia" }, "zoom": 2, "scale": 0, "geometry": { "type": "Point", "coordinates": [ 25.766920115482545, 58.801644137495032 ] } },
{ "type": "Feature", "properties": { "NAME": "Qatar" }, "zoom": 1, "scale": 0, "geometry": { "type": "Point", "coordinates": [ 51.187644839203465, 25.314758174405512 ] } },
{ "type": "Feature", "properties": { "NAME": "Guyana" }, "zoom": 2, "scale": 0, "geometry": { "type": "Point", "coordinates": [ -58.980948562286258, 4.934549504240546 ] } },
{ "type": "Feature", "properties": { "NAME": "Bahrain" }, "zoom": 1, "scale": 0, "geometry": { "type": "Point", "coordinates": [ 50.544343614194915, 26.04910275042192 ] } },
{ "type": "Feature", "properties": { "NAME": "Bhutan" }, "zoom": 1, "scale": 1, "geometry": { "type": "Point", "coordinates": [ 90.403788194569827, 27.412556170527974 ] } },
{ "type": "Feature", "properties": { "NAME": "Montenegro" }, "zoom": 1, "scale": 0, "geometry": { "type": "Point", "coordinates": [ 19.238611437940008, 42.788448676953415 ] } },
{ "type": "Feature", "properties": { "NAME": "Eq. Guinea" }, "zoom": 1, "scale": 0, "geometry": { "type": "Point", "coordinates": [ 10.332999549650891, 1.707306507986113 ] } },
{ "type": "Feature", "properties": { "NAME": "Cyprus" }, "zoom": 1, "scale": 0, "geometry": { "type": "Point", "coordinates": [ 32.990283679706188, 34.915275711242046 ] } },
{ "type": "Feature", "properties": { "NAME": "Djibouti" }, "zoom": 1, "scale": 0, "geometry": { "type": "Point", "coordinates": [ 42.566969712524404, 11.751293551172392 ] } },
{ "type": "Feature", "properties": { "NAME": "Luxembourg" }, "zoom": 1, "scale": 0, "geometry": { "type": "Point", "coordinates": [ 6.071594220868668, 49.767738580019873 ] } },
{ "type": "Feature", "properties": { "NAME": "Suriname" }, "zoom": 1, "scale": 1, "geometry": { "type": "Point", "coordinates": [ -55.912093372090837, 3.998167520836877 ] } },
{ "type": "Feature", "properties": { "NAME": "Malta" }, "zoom": 1, "scale": 0, "geometry": { "type": "Point", "coordinates": [ 14.404171942315806, 35.920901587187259 ] } },
{ "type": "Feature", "properties": { "NAME": "Bahamas" }, "zoom": 1, "scale": 0, "geometry": { "type": "Point", "coordinates": [ -76.570480490997284, 24.254338956092013 ] } },
{ "type": "Feature", "properties": { "NAME": "Belize" }, "zoom": 1, "scale": 0, "geometry": { "type": "Point", "coordinates": [ -88.704356434044556, 17.204121637958401 ] } },
{ "type": "Feature", "properties": { "NAME": "Iceland" }, "zoom": 4, "scale": 1, "geometry": { "type": "Point", "coordinates": [ -18.328234118145964, 65.02611993806407 ] } },
{ "type": "Feature", "properties": { "NAME": "Barbados" }, "zoom": 1, "scale": 0, "geometry": { "type": "Point", "coordinates": [ -59.560486339744699, 13.180892964694932 ] } },
{ "type": "Feature", "properties": { "NAME": "New Caledonia" }, "zoom": 1, "scale": 1, "geometry": { "type": "Point", "coordinates": [ 165.674508780544841, -21.296653622787009 ] } },
{ "type": "Feature", "properties": { "NAME": "Samoa" }, "zoom": 1, "scale": 1, "geometry": { "type": "Point", "coordinates": [ -172.160049357800489, -13.754856704614911 ] } },
{ "type": "Feature", "properties": { "NAME": "Vanuatu" }, "zoom": 1, "scale": 1, "geometry": { "type": "Point", "coordinates": [ 167.706713703127548, -16.218651224158059 ] } },
{ "type": "Feature", "properties": { "NAME": "Sao Tome and Principe" }, "zoom": 1, "scale": 0, "geometry": { "type": "Point", "coordinates": [ 6.726997404236238, 0.444138181516755 ] } },
{ "type": "Feature", "properties": { "NAME": "Guam" }, "zoom": 1, "scale": 0, "geometry": { "type": "Point", "coordinates": [ 144.772244696613626, 13.443702426007979 ] } },
{ "type": "Feature", "properties": { "NAME": "Saint Lucia" }, "zoom": 1, "scale": 0, "geometry": { "type": "Point", "coordinates": [ -60.96957168059236, 13.902539319678196 ] } },
{ "type": "Feature", "properties": { "NAME": "US VI." }, "zoom": 1, "scale": 0, "geometry": { "type": "Point", "coordinates": [ -64.790221892162862, 17.959813567448006 ] } },
{ "type": "Feature", "properties": { "NAME": "Aruba" }, "zoom": 1, "scale": 0, "geometry": { "type": "Point", "coordinates": [ -69.973455071829036, 12.516792752782754 ] } },
{ "type": "Feature", "properties": { "NAME": "Grenada" }, "zoom": 1, "scale": 0, "geometry": { "type": "Point", "coordinates": [ -61.655910651638067, 12.153285255913037 ] } },
{ "type": "Feature", "properties": { "NAME": "Ant. & Barb." }, "zoom": 1, "scale": 0, "geometry": { "type": "Point", "coordinates": [ -61.791002770320986, 17.284902872879275 ] } },
{ "type": "Feature", "properties": { "NAME": "Dominica" }, "zoom": 1, "scale": 0, "geometry": { "type": "Point", "coordinates": [ -61.356205351749914, 15.436333566316852 ] } },
{ "type": "Feature", "properties": { "NAME": "Bermuda" }, "zoom": 1, "scale": 1, "geometry": { "type": "Point", "coordinates": [ -64.755838384222372, 32.310475438648979 ] } },
{ "type": "Feature", "properties": { "NAME": "Am. Samoa" }, "zoom": 1, "scale": 0, "geometry": { "type": "Point", "coordinates": [ -170.397562821250858, -14.255623305619073 ] } },
{ "type": "Feature", "properties": { "NAME": "Greenland" }, "zoom": 5, "scale": 1, "geometry": { "type": "Point", "coordinates": [ -40.3135988913726, 73.971787497496891 ] } },
{ "type": "Feature", "properties": { "NAME": "Cayman Is." }, "zoom": 1, "scale": 0, "geometry": { "type": "Point", "coordinates": [ -80.869496764003699, 19.43424827634589 ] } },
{ "type": "Feature", "properties": { "NAME": "Faroe Is." }, "zoom": 3, "scale": 0, "geometry": { "type": "Point", "coordinates": [ -6.870081987659933, 62.076545691156028 ] } },
{ "type": "Feature", "properties": { "NAME": "LI" }, "zoom": 1, "scale": 1, "geometry": { "type": "Point", "coordinates": [ 9.540889371905251, 47.138288426407918 ] } },
{ "type": "Feature", "properties": { "NAME": "B VI" }, "zoom": 1, "scale": 0, "geometry": { "type": "Point", "coordinates": [ -64.498844899395905, 18.514257084606268 ] } },
{ "type": "Feature", "properties": { "NAME": "Palau" }, "zoom": 1, "scale": 0, "geometry": { "type": "Point", "coordinates": [ 134.339601476674829, 7.176006147583314 ] } },
{ "type": "Feature", "properties": { "NAME": "Anguilla" }, "zoom": 1, "scale": 0, "geometry": { "type": "Point", "coordinates": [ -63.060816809787077, 18.225603449499001 ] } },
{ "type": "Feature", "properties": { "NAME": "Nauru" }, "zoom": 1, "scale": 0, "geometry": { "type": "Point", "coordinates": [ 166.93330912208782, -0.52097463135483 ] } },
{ "type": "Feature", "properties": { "NAME": "Montserrat" }, "zoom": 1, "scale": 0, "geometry": { "type": "Point", "coordinates": [ -62.186671105870921, 16.737348777456713 ] } },
{ "type": "Feature", "properties": { "NAME": "Antarctica" }, "zoom": 5, "scale": 1, "geometry": { "type": "Point", "coordinates": [ 19.317439885304257, -80.392437403324251 ] } },
{ "type": "Feature", "properties": { "NAME": "Falkland Is." }, "zoom": 3, "scale": 1, "geometry": { "type": "Point", "coordinates": [ -59.372962262985375, -51.734294227057376 ] } }
]
}
